$GPGGA,151825.690,4011.0180,N,00856.1776,W,1,09,0.9,62.0,M,51.0,M,0.0,0000*54
$GPGSA,A,3,21,29,27,02,10,24,08,26,28,,,,1.6,0.9,1.3*30
$GPRMC,151825.690,A,4011.0180,N,00856.1776,W,9.40,126.18,250507,,*11
$GPGGA,151826.690,4011.0165,N,00856.1750,W,1,09,0.9,61.9,M,51.0,M,0.0,0000*52
$GPGSA,A,3,21,29,27,02,10,24,08,26,28,,,,1.6,0.9,1.3*30
$GPRMC,151826.690,A,4011.0165,N,00856.1750,W,9.29,127.42,250507,,*1C
$GPGGA,151827.690,4011.0151,N,00856.1723,W,1,09,0.9,61.8,M,51.0,M,0.0,0000*51
$GPGSA,A,3,21,29,27,02,10,24,08,26,28,,,,1.6,0.9,1.3*30
$GPRMC,151827.690,A,4011.0151,N,00856.1723,W,9.34,124.54,250507,,*16
$GPGGA,151828.690,4011.0137,N,00856.1695,W,1,09,0.9,61.6,M,51.0,M,0.0,0000*5C
$GPGSA,A,3,21,29,27,02,10,24,08,26,28,,,,1.6,0.9,1.3*30
$GPGSV,3,1,09,10,76,166,46,29,58,314,49,26,46,299,46,08,45,047,30*73
$GPGSV,3,2,09,28,39,106,49,24,30,280,31,27,21,049,34,21,12,315,46*7F
$GPGSV,3,3,09,02,10,197,38*47
$GPRMC,151828.690,A,4011.0137,N,00856.1695,W,9.30,122.08,250507,,*1E
$GPGGA,151829.690,4011.0123,N,00856.1666,W,1,08,0.9,61.7,M,51.0,M,0.0,0000*54
$GPGSA,A,3,21,29,27,02,10,24,26,28,,,,,1.6,0.9,1.3*38
$GPRMC,151829.690,A,4011.0123,N,00856.1666,W,9.46,124.74,250507,,*1A
$GPGGA,151830.690,4011.0108,N,00856.1637,W,1,09,0.9,61.8,M,51.0,M,0.0,0000*5F
$GPGSA,A,3,21,29,27,02,10,24,08,26,28,,,,1.6,0.9,1.3*30
$GPRMC,151830.690,A,4011.0108,N,00856.1637,W,9.68,127.10,250507,,*12
$GPGGA,151831.690,4011.0092,N,00856.1607,W,1,09,0.9,62.0,M,51.0,M,0.0,0000*54
$GPGSA,A,3,21,29,27,02,10,24,08,26,28,,,,1.6,0.9,1.3*30
$GPRMC,151831.690,A,4011.0092,N,00856.1607,W,9.92,127.08,250507,,*1E
$GPGGA,151832.690,4011.0076,N,00856.1577,W,1,09,0.9,62.2,M,51.0,M,0.0,0000*5B
$GPGSA,A,3,21,29,27,02,10,24,08,26,28,,,,1.6,0.9,1.3*30
$GPRMC,151832.690,A,4011.0076,N,00856.1577,W,9.93,125.35,250507,,*1E
$GPGGA,151833.690,4011.0061,N,00856.1547,W,1,09,0.9,62.3,M,51.0,M,0.0,0000*5E
$GPGSA,A,3,21,29,27,02,10,24,08,26,28,,,,1.6,0.9,1.3*30
$GPGSV,3,1,09,10,76,166,47,29,58,314,50,26,46,299,48,08,45,047,34*70
$GPGSV,3,2,09,28,39,106,49,24,30,280,40,27,21,049,32,21,12,315,46*7F
$GPGSV,3,3,09,02,10,197,35*4A
$GPRMC,151833.690,A,4011.0061,N,00856.1547,W,9.96,122.80,250507,,*16
$GPGGA,151834.690,4011.0046,N,00856.1516,W,1,09,0.9,62.4,M,51.0,M,0.0,0000*5F
$GPGSA,A,3,21,29,27,02,10,24,08,26,28,,,,1.6,0.9,1.3*30
$GPRMC,151834.690,A,4011.0046,N,00856.1516,W,9.90,123.59,250507,,*13
$GPGGA,151835.690,4011.0030,N,00856.1487,W,1,09,0.9,62.3,M,51.0,M,0.0,0000*51
$GPGSA,A,3,21,29,27,02,10,24,08,26,28,,,,1.6,0.9,1.3*30
$GPRMC,151835.690,A,4011.0030,N,00856.1487,W,9.80,127.73,250507,,*17
$GPGGA,151836.690,4011.0013,N,00856.1460,W,1,09,0.9,62.1,M,51.0,M,0.0,0000*58
$GPGSA,A,3,21,29,27,02,10,24,08,26,28,,,,1.6,0.9,1.3*30
$GPRMC,151836.690,A,4011.0013,N,00856.1460,W,9.63,128.26,250507,,*1E
$GPGGA,151837.689,4010.9996,N,00856.1433,W,1,09,0.9,62.0,M,51.0,M,0.0,0000*5A
$GPGSA,A,3,21,29,27,02,10,24,08,26,28,,,,1.6,0.9,1.3*30
$GPRMC,151837.689,A,4010.9996,N,00856.1433,W,9.49,126.53,250507,,*19
$GPGGA,151838.689,4010.9982,N,00856.1405,W,1,09,0.9,62.1,M,51.0,M,0.0,0000*54
$GPGSA,A,3,21,29,27,02,10,24,08,26,28,,,,1.6,0.9,1.3*30
$GPGSV,3,1,09,10,76,166,47,29,58,314,50,26,46,299,46,08,45,047,32*78
$GPGSV,3,2,09,28,39,106,48,24,30,280,42,27,21,049,35,21,12,315,46*7B
$GPGSV,3,3,09,02,10,197,33*4C
$GPRMC,151838.689,A,4010.9982,N,00856.1405,W,9.43,125.01,250507,,*18
$GPGGA,151839.689,4010.9967,N,00856.1377,W,1,09,0.9,62.3,M,51.0,M,0.0,0000*5E
$GPGSA,A,3,21,29,27,02,10,24,08,26,28,,,,1.6,0.9,1.3*30
$GPRMC,151839.689,A,4010.9967,N,00856.1377,W,9.47,126.26,250507,,*12
$GPGGA,151840.689,4010.9952,N,00856.1349,W,1,09,0.9,62.7,M,51.0,M,0.0,0000*5F
$GPGSA,A,3,21,29,27,02,10,24,08,26,28,,,,1.6,0.9,1.3*30
$GPRMC,151840.689,A,4010.9952,N,00856.1349,W,9.49,127.35,250507,,*1A
$GPGGA,151841.689,4010.9935,N,00856.1322,W,1,09,0.9,63.0,M,51.0,M,0.0,0000*54
$GPGSA,A,3,21,29,27,02,10,24,08,26,28,,,,1.6,0.9,1.3*30
$GPRMC,151841.689,A,4010.9935,N,00856.1322,W,9.63,128.96,250507,,*19
$GPGGA,151842.689,4010.9919,N,00856.1295,W,1,09,0.9,63.2,M,51.0,M,0.0,0000*56
$GPGSA,A,3,21,29,27,02,10,24,08,26,28,,,,1.6,0.9,1.3*30
$GPRMC,151842.689,A,4010.9919,N,00856.1295,W,9.64,126.06,250507,,*19
$GPGGA,151843.689,4010.9904,N,00856.1268,W,1,09,0.9,63.4,M,51.0,M,0.0,0000*5F
$GPGSA,A,3,21,29,27,02,10,24,08,26,28,,,,1.6,0.9,1.3*30
$GPGSV,3,1,09,10,76,166,47,29,58,314,50,26,46,299,47,08,45,047,31*7A
$GPGSV,3,2,09,28,39,106,49,24,30,280,38,27,21,049,34,21,12,315,47*77
$GPGSV,3,3,09,02,10,197,43*4B
$GPRMC,151843.689,A,4010.9904,N,00856.1268,W,9.39,124.54,250507,,*1B
$GPGGA,151844.689,4010.9888,N,00856.1242,W,1,09,0.9,63.4,M,51.0,M,0.0,0000*55
$GPGSA,A,3,21,29,27,02,10,24,08,26,28,,,,1.6,0.9,1.3*30
$GPRMC,151844.689,A,4010.9888,N,00856.1242,W,9.49,125.46,250507,,*14
$GPGGA,151845.689,4010.9873,N,00856.1215,W,1,09,0.9,63.2,M,51.0,M,0.0,0000*54
$GPGSA,A,3,21,29,27,02,10,24,08,26,28,,,,1.6,0.9,1.3*30
$GPRMC,151845.689,A,4010.9873,N,00856.1215,W,9.40,126.63,250507,,*1E
$GPGGA,151846.689,4010.9857,N,00856.1189,W,1,09,0.9,62.9,M,51.0,M,0.0,0000*5D
$GPGSA,A,3,21,29,27,02,10,24,08,26,28,,,,1.6,0.9,1.3*30
$GPRMC,151846.689,A,4010.9857,N,00856.1189,W,9.39,127.08,250507,,*1F
$GPGGA,151847.689,4010.9841,N,00856.1162,W,1,09,0.9,62.7,M,51.0,M,0.0,0000*50
$GPGSA,A,3,21,29,27,02,10,24,08,26,28,,,,1.6,0.9,1.3*30
$GPRMC,151847.689,A,4010.9841,N,00856.1162,W,9.64,126.27,250507,,*18
$GPGGA,151848.689,4010.9826,N,00856.1132,W,1,09,0.9,62.6,M,51.0,M,0.0,0000*5A
$GPGSA,A,3,21,29,27,02,10,24,08,26,28,,,,1.6,0.9,1.3*30
$GPGSV,3,1,09,10,75,166,47,29,58,314,48,26,46,299,46,08,45,047,28*79
$GPGSV,3,2,09,28,39,106,49,24,30,280,35,27,20,049,36,21,12,315,45*7B
$GPGSV,3,3,09,02,10,197,38*47
$GPRMC,151848.689,A,4010.9826,N,00856.1132,W,9.79,125.53,250507,,*1F
$GPGGA,151849.689,4010.9810,N,00856.1103,W,1,09,0.9,62.3,M,51.0,M,0.0,0000*59
$GPGSA,A,3,21,29,27,02,10,24,08,26,28,,,,1.6,0.9,1.3*30
$GPRMC,151849.689,A,4010.9810,N,00856.1103,W,9.98,126.06,250507,,*15
$GPGGA,151850.689,4010.9794,N,00856.1073,W,1,09,0.9,62.1,M,51.0,M,0.0,0000*56
$GPGSA,A,3,21,29,27,02,10,24,08,26,28,,,,1.6,0.9,1.3*30
$GPRMC,151850.689,A,4010.9794,N,00856.1073,W,10.00,126.19,250507,,*2F
$GPGGA,151851.689,4010.9777,N,00856.1045,W,1,09,0.9,61.9,M,51.0,M,0.0,0000*54
$GPGSA,A,3,21,29,27,02,10,24,08,26,28,,,,1.6,0.9,1.3*30
$GPRMC,151851.689,A,4010.9777,N,00856.1045,W,9.92,129.31,250507,,*10
$GPGGA,151852.689,4010.9761,N,00856.1017,W,1,09,0.9,61.7,M,51.0,M,0.0,0000*59
$GPGSA,A,3,21,29,27,02,10,24,08,26,28,,,,1.6,0.9,1.3*30
$GPRMC,151852.689,A,4010.9761,N,00856.1017,W,9.68,126.58,250507,,*16
$GPGGA,151853.689,4010.9746,N,00856.0989,W,1,09,0.9,61.5,M,51.0,M,0.0,0000*50
$GPGSA,A,3,21,29,27,02,10,24,08,26,28,,,,1.6,0.9,1.3*30
$GPGSV,3,1,09,10,75,166,46,29,58,314,50,26,46,299,48,08,45,047,33*75
$GPGSV,3,2,09,28,39,106,49,24,30,280,41,27,20,049,32,21,12,315,46*7F
$GPGSV,3,3,09,02,10,197,41*49
$GPRMC,151853.689,A,4010.9746,N,00856.0989,W,9.51,122.52,250507,,*19
$GPGGA,151854.688,4010.9732,N,00856.0961,W,1,09,0.9,61.4,M,51.0,M,0.0,0000*52
$GPGSA,A,3,21,29,27,02,10,24,08,26,28,,,,1.6,0.9,1.3*30
$GPRMC,151854.688,A,4010.9732,N,00856.0961,W,9.35,124.82,250507,,*13
$GPGGA,151855.688,4010.9716,N,00856.0934,W,1,09,0.9,61.4,M,51.0,M,0.0,0000*55
$GPGSA,A,3,21,29,27,02,10,24,08,26,28,,,,1.6,0.9,1.3*30
$GPRMC,151855.688,A,4010.9716,N,00856.0934,W,9.26,129.14,250507,,*14
$GPGGA,151856.688,4010.9700,N,00856.0908,W,1,09,0.9,61.5,M,51.0,M,0.0,0000*5F
$GPGSA,A,3,21,29,27,02,10,24,08,26,28,,,,1.6,0.9,1.3*30
$GPRMC,151856.688,A,4010.9700,N,00856.0908,W,9.52,128.51,250507,,*1C
$GPGGA,151857.688,4010.9684,N,00856.0878,W,1,09,0.9,62.1,M,51.0,M,0.0,0000*52
$GPGSA,A,3,21,29,27,02,10,24,08,26,28,,,,1.6,0.9,1.3*30
$GPRMC,151857.688,A,4010.9684,N,00856.0878,W,9.62,123.50,250507,,*1F
$GPGGA,151858.688,4010.9670,N,00856.0848,W,1,09,0.9,62.6,M,51.0,M,0.0,0000*52
$GPGSA,A,3,21,29,27,02,10,24,08,26,28,,,,1.6,0.9,1.3*30
$GPGSV,3,1,09,10,75,166,45,29,58,314,50,26,46,299,46,08,45,047,29*73
$GPGSV,3,2,09,28,39,106,49,24,30,280,36,27,20,049,37,21,12,315,47*7B
$GPGSV,3,3,09,02,10,197,32*4D
$GPRMC,151858.688,A,4010.9670,N,00856.0848,W,9.62,123.95,250507,,*11
$GPGGA,151859.688,4010.9654,N,00856.0820,W,1,09,0.9,63.2,M,51.0,M,0.0,0000*5E
$GPGSA,A,3,21,29,27,02,10,24,08,26,28,,,,1.6,0.9,1.3*30
$GPRMC,151859.688,A,4010.9654,N,00856.0820,W,9.77,127.19,250507,,*1C
$GPGGA,151900.688,4010.9638,N,00856.0792,W,1,09,0.9,63.3,M,51.0,M,0.0,0000*5E
$GPGSA,A,3,21,29,27,02,10,24,08,26,28,,,,1.6,0.9,1.3*30
$GPRMC,151900.688,A,4010.9638,N,00856.0792,W,9.78,127.85,250507,,*17
$GPGGA,151901.688,4010.9622,N,00856.0763,W,1,09,0.9,63.2,M,51.0,M,0.0,0000*5B
$GPGSA,A,3,21,29,27,02,10,24,08,26,28,,,,1.6,0.9,1.3*30
$GPRMC,151901.688,A,4010.9622,N,00856.0763,W,9.54,124.81,250507,,*1A
$GPGGA,151902.688,4010.9608,N,00856.0735,W,1,09,0.9,63.0,M,51.0,M,0.0,0000*51
$GPGSA,A,3,21,29,27,02,10,24,08,26,28,,,,1.6,0.9,1.3*30
$GPRMC,151902.688,A,4010.9608,N,00856.0735,W,9.37,124.96,250507,,*11
$GPGGA,151903.688,4010.9593,N,00856.0708,W,1,09,0.9,62.9,M,51.0,M,0.0,0000*57
$GPGSA,A,3,21,29,27,02,10,24,08,26,28,,,,1.6,0.9,1.3*30
$GPGSV,3,1,09,10,75,166,47,29,58,314,49,26,46,299,47,08,45,047,32*72
$GPGSV,3,2,09,28,39,106,49,24,30,280,39,27,20,049,34,21,12,315,48*78
$GPGSV,3,3,09,02,10,197,40*48
$GPRMC,151903.688,A,4010.9593,N,00856.0708,W,9.54,126.34,250507,,*10
$GPGGA,151904.688,4010.9578,N,00856.0681,W,1,08,0.9,62.8,M,51.0,M,0.0,0000*55
$GPGSA,A,3,21,29,27,02,10,24,26,28,,,,,1.6,0.9,1.3*38
$GPRMC,151904.688,A,4010.9578,N,00856.0681,W,9.44,126.37,250507,,*10
$GPGGA,151905.688,4010.9562,N,00856.0653,W,1,08,0.9,63.0,M,51.0,M,0.0,0000*59
$GPGSA,A,3,21,29,27,02,10,24,26,28,,,,,1.6,0.9,1.3*38
$GPRMC,151905.688,A,4010.9562,N,00856.0653,W,9.46,125.40,250507,,*14
$GPGGA,151906.688,4010.9546,N,00856.0623,W,1,08,0.9,63.4,M,51.0,M,0.0,0000*5F
$GPGSA,A,3,21,29,27,02,10,24,26,28,,,,,1.6,0.9,1.3*38
$GPRMC,151906.688,A,4010.9546,N,00856.0623,W,9.83,124.89,250507,,*1B
$GPGGA,151907.688,4010.9530,N,00856.0594,W,1,09,0.9,63.6,M,51.0,M,0.0,0000*53
$GPGSA,A,3,21,29,27,02,10,24,08,26,28,,,,1.6,0.9,1.3*30
$GPRMC,151907.688,A,4010.9530,N,00856.0594,W,9.77,126.85,250507,,*11
$GPGGA,151908.688,4010.9514,N,00856.0567,W,1,09,0.9,63.6,M,51.0,M,0.0,0000*56
$GPGSA,A,3,21,29,27,02,10,24,08,26,28,,,,1.6,0.9,1.3*30
$GPGSV,3,1,09,10,75,166,47,29,58,314,51,26,47,300,48,08,45,047,33*75
$GPGSV,3,2,09,28,39,106,48,24,30,279,44,27,20,049,34,21,12,315,44*79
$GPGSV,3,3,09,02,10,197,33*4C
$GPRMC,151908.688,A,4010.9514,N,00856.0567,W,9.76,127.33,250507,,*19
$GPGGA,151909.688,4010.9497,N,00856.0540,W,1,09,0.9,63.6,M,51.0,M,0.0,0000*58
$GPGSA,A,3,21,29,27,02,10,24,08,26,28,,,,1.6,0.9,1.3*30
$GPRMC,151909.688,A,4010.9497,N,00856.0540,W,9.71,126.81,250507,,*18
$GPGGA,151910.687,4010.9481,N,00856.0514,W,1,08,1.5,63.4,M,51.0,M,0.0,0000*57
$GPGSA,A,3,21,29,27,10,24,08,26,28,,,,,2.5,1.5,1.9*35
$GPRMC,151910.687,A,4010.9481,N,00856.0514,W,9.45,126.75,250507,,*15
$GPGGA,151911.687,4010.9466,N,00856.0487,W,1,09,0.9,63.4,M,51.0,M,0.0,0000*58
$GPGSA,A,3,21,29,27,02,10,24,08,26,28,,,,1.6,0.9,1.3*30
$GPRMC,151911.687,A,4010.9466,N,00856.0487,W,9.24,125.76,250507,,*11
$GPGGA,151912.687,4010.9451,N,00856.0461,W,1,09,0.9,63.4,M,51.0,M,0.0,0000*57
$GPGSA,A,3,21,29,27,02,10,24,08,26,28,,,,1.6,0.9,1.3*30
$GPRMC,151912.687,A,4010.9451,N,00856.0461,W,9.09,125.84,250507,,*1C
$GPGGA,151913.687,4010.9436,N,00856.0433,W,1,09,0.9,63.5,M,51.0,M,0.0,0000*51
$GPGSA,A,3,21,29,27,02,10,24,08,26,28,,,,1.6,0.9,1.3*30
$GPGSV,3,1,09,10,75,166,44,29,58,314,48,26,47,300,45,08,45,047,31*71
$GPGSV,3,2,09,28,39,106,48,24,30,279,37,27,20,049,30,21,12,315,46*7B
$GPGSV,3,3,09,02,10,197,40*48
$GPRMC,151913.687,A,4010.9436,N,00856.0433,W,9.10,126.35,250507,,*1A
$GPGGA,151914.687,4010.9421,N,00856.0404,W,1,08,0.9,63.6,M,51.0,M,0.0,0000*56
$GPGSA,A,3,21,29,27,02,10,24,26,28,,,,,1.6,0.9,1.3*38
$GPRMC,151914.687,A,4010.9421,N,00856.0404,W,9.29,126.57,250507,,*11
$GPGGA,151915.687,4010.9406,N,00856.0377,W,1,09,0.9,63.6,M,51.0,M,0.0,0000*50
$GPGSA,A,3,21,29,27,02,10,24,08,26,28,,,,1.6,0.9,1.3*30
$GPRMC,151915.687,A,4010.9406,N,00856.0377,W,9.35,127.96,250507,,*17
$GPGGA,151916.687,4010.9389,N,00856.0349,W,1,09,0.9,63.5,M,51.0,M,0.0,0000*5D
$GPGSA,A,3,21,29,27,02,10,24,08,26,28,,,,1.6,0.9,1.3*30
$GPRMC,151916.687,A,4010.9389,N,00856.0349,W,9.69,126.56,250507,,*1D
$GPGGA,151917.687,4010.9373,N,00856.0320,W,1,09,0.9,63.1,M,51.0,M,0.0,0000*52
$GPGSA,A,3,21,29,27,02,10,24,08,26,28,,,,1.6,0.9,1.3*30
$GPRMC,151917.687,A,4010.9373,N,00856.0320,W,10.00,125.21,250507,,*22
$GPGGA,151918.687,4010.9357,N,00856.0290,W,1,09,0.9,62.9,M,51.0,M,0.0,0000*58
$GPGSA,A,3,21,29,27,02,10,24,08,26,28,,,,1.6,0.9,1.3*30
$GPGSV,3,1,09,10,75,166,47,29,58,315,50,26,47,300,46,08,45,047,33*7B
$GPGSV,3,2,09,28,39,106,49,24,30,279,34,27,20,049,37,21,12,315,44*7C
$GPGSV,3,3,09,02,10,197,40*48
$GPRMC,151918.687,A,4010.9357,N,00856.0290,W,10.18,125.22,250507,,*2B
$GPGGA,151919.687,4010.9340,N,00856.0259,W,1,09,0.9,63.0,M,51.0,M,0.0,0000*52
$GPGSA,A,3,21,29,27,02,10,24,08,26,28,,,,1.6,0.9,1.3*30
$GPRMC,151919.687,A,4010.9340,N,00856.0259,W,10.23,125.75,250507,,*23
$GPGGA,151920.687,4010.9323,N,00856.0230,W,1,09,0.9,63.0,M,51.0,M,0.0,0000*52
$GPGSA,A,3,21,29,27,02,10,24,08,26,28,,,,1.6,0.9,1.3*30
$GPRMC,151920.687,A,4010.9323,N,00856.0230,W,10.16,127.31,250507,,*27
$GPGGA,151921.687,4010.9306,N,00856.0201,W,1,09,0.9,62.9,M,51.0,M,0.0,0000*5E
$GPGSA,A,3,21,29,27,02,10,24,08,26,28,,,,1.6,0.9,1.3*30
$GPRMC,151921.687,A,4010.9306,N,00856.0201,W,10.14,127.20,250507,,*21
$GPGGA,151922.687,4010.9290,N,00856.0173,W,1,09,0.9,62.8,M,51.0,M,0.0,0000*54
$GPGSA,A,3,21,29,27,02,10,24,08,26,28,,,,1.6,0.9,1.3*30
$GPRMC,151922.687,A,4010.9290,N,00856.0173,W,9.55,126.22,250507,,*14
$GPGGA,151923.687,4010.9276,N,00856.0146,W,1,09,0.9,62.4,M,51.0,M,0.0,0000*57
$GPGSA,A,3,21,29,27,02,10,24,08,26,28,,,,1.6,0.9,1.3*30
$GPGSV,3,1,09,10,75,166,46,29,58,315,51,26,47,300,50,08,45,047,36*79
$GPGSV,3,2,09,28,39,106,46,24,30,279,45,27,20,049,34,21,12,315,43*71
$GPGSV,3,3,09,02,10,197,33*4C
$GPRMC,151923.687,A,4010.9276,N,00856.0146,W,9.27,124.87,250507,,*13
$GPGGA,151924.687,4010.9261,N,00856.0120,W,1,09,0.9,62.2,M,51.0,M,0.0,0000*50
$GPGSA,A,3,21,29,27,02,10,24,08,26,28,,,,1.6,0.9,1.3*30
$GPRMC,151924.687,A,4010.9261,N,00856.0120,W,9.13,123.77,250507,,*1D
$GPGGA,151925.687,4010.9247,N,00856.0096,W,1,09,0.9,61.9,M,51.0,M,0.0,0000*51
$GPGSA,A,3,21,29,27,02,10,24,08,26,28,,,,1.6,0.9,1.3*30
$GPRMC,151925.687,A,4010.9247,N,00856.0096,W,8.69,125.63,250507,,*1B
$GPGGA,151926.686,4010.9232,N,00856.0073,W,1,09,0.9,61.4,M,51.0,M,0.0,0000*57
$GPGSA,A,3,21,29,27,02,10,24,08,26,28,,,,1.6,0.9,1.3*30
$GPRMC,151926.686,A,4010.9232,N,00856.0073,W,8.79,127.99,250507,,*16
$GPGGA,151927.686,4010.9217,N,00856.0049,W,1,09,0.9,61.2,M,51.0,M,0.0,0000*5E
$GPGSA,A,3,21,29,27,02,10,24,08,26,28,,,,1.6,0.9,1.3*30
$GPRMC,151927.686,A,4010.9217,N,00856.0049,W,8.69,125.58,250507,,*17
$GPGGA,151928.686,4010.9203,N,00856.0023,W,1,09,0.9,61.2,M,51.0,M,0.0,0000*58
$GPGSA,A,3,21,29,27,02,10,24,08,26,28,,,,1.6,0.9,1.3*30
$GPGSV,3,1,09,10,75,166,47,29,58,315,50,26,47,300,43,08,45,047,29*75
$GPGSV,3,2,09,28,39,106,50,24,30,279,35,27,20,049,35,21,12,315,46*75
$GPGSV,3,3,09,02,10,197,40*48
$GPRMC,151928.686,A,4010.9203,N,00856.0023,W,8.91,123.82,250507,,*17
$GPGGA,151929.686,4010.9189,N,00855.9995,W,1,08,0.9,61.4,M,51.0,M,0.0,0000*51
$GPGSA,A,3,21,29,27,02,10,24,26,28,,,,,1.6,0.9,1.3*38
$GPRMC,151929.686,A,4010.9189,N,00855.9995,W,9.20,124.28,250507,,*15
$GPGGA,151930.686,4010.9174,N,00855.9966,W,1,08,0.9,61.6,M,51.0,M,0.0,0000*55
$GPGSA,A,3,21,29,27,02,10,24,26,28,,,,,1.6,0.9,1.3*38
$GPRMC,151930.686,A,4010.9174,N,00855.9966,W,9.58,127.11,250507,,*15
$GPGGA,151931.686,4010.9157,N,00855.9938,W,1,09,0.9,61.7,M,51.0,M,0.0,0000*5E
$GPGSA,A,3,21,29,27,02,10,24,08,26,28,,,,1.6,0.9,1.3*30
$GPRMC,151931.686,A,4010.9157,N,00855.9938,W,9.97,129.01,250507,,*12
$GPGGA,151932.686,4010.9139,N,00855.9910,W,1,09,0.9,61.6,M,51.0,M,0.0,0000*5E
$GPGSA,A,3,21,29,27,02,10,24,08,26,28,,,,1.6,0.9,1.3*30
$GPRMC,151932.686,A,4010.9139,N,00855.9910,W,10.19,127.08,250507,,*2A
$GPGGA,151933.686,4010.9123,N,00855.9880,W,1,09,0.9,61.7,M,51.0,M,0.0,0000*5D
$GPGSA,A,3,21,29,27,02,10,24,08,26,28,,,,1.6,0.9,1.3*30
$GPGSV,3,1,09,10,75,166,48,29,58,315,49,26,47,300,46,08,45,047,32*7D
$GPGSV,3,2,09,28,39,106,50,24,30,279,35,27,20,049,35,21,12,315,45*76
$GPGSV,3,3,09,02,10,197,37*48
$GPRMC,151933.686,A,4010.9123,N,00855.9880,W,10.41,125.66,250507,,*2F
$GPGGA,151934.686,4010.9107,N,00855.9847,W,1,09,0.9,62.2,M,51.0,M,0.0,0000*51
$GPGSA,A,3,21,29,27,02,10,24,08,26,28,,,,1.6,0.9,1.3*30
$GPRMC,151934.686,A,4010.9107,N,00855.9847,W,10.64,123.79,250507,,*2A
$GPGGA,151935.686,4010.9091,N,00855.9813,W,1,09,0.9,62.8,M,51.0,M,0.0,0000*55
$GPGSA,A,3,21,29,27,02,10,24,08,26,28,,,,1.6,0.9,1.3*30
$GPRMC,151935.686,A,4010.9091,N,00855.9813,W,10.35,124.88,250507,,*29
$GPGGA,151936.686,4010.9074,N,00855.9783,W,1,09,0.9,63.0,M,51.0,M,0.0,0000*52
$GPGSA,A,3,21,29,27,02,10,24,08,26,28,,,,1.6,0.9,1.3*30
$GPRMC,151936.686,A,4010.9074,N,00855.9783,W,10.20,128.02,250507,,*2D
$GPGGA,151937.686,4010.9057,N,00855.9753,W,1,09,0.9,62.9,M,51.0,M,0.0,0000*57
$GPGSA,A,3,21,29,27,02,10,24,08,26,28,,,,1.6,0.9,1.3*30
$GPRMC,151937.686,A,4010.9057,N,00855.9753,W,9.85,127.01,250507,,*1B
$GPGGA,151938.686,4010.9043,N,00855.9725,W,1,09,0.9,62.7,M,51.0,M,0.0,0000*52
$GPGSA,A,3,21,29,27,02,10,24,08,26,28,,,,1.6,0.9,1.3*30
$GPGSV,3,1,09,10,75,166,47,29,58,315,49,26,47,300,50,08,45,047,36*71
$GPGSV,3,2,09,28,39,106,46,24,30,279,42,27,20,049,33,21,12,315,45*77
$GPGSV,3,3,09,02,10,197,37*48
$GPRMC,151938.686,A,4010.9043,N,00855.9725,W,9.20,123.08,250507,,*12
$GPGGA,151939.686,4010.9031,N,00855.9698,W,1,09,0.9,62.4,M,51.0,M,0.0,0000*52
$GPGSA,A,3,21,29,27,02,10,24,08,26,28,,,,1.6,0.9,1.3*30
$GPRMC,151939.686,A,4010.9031,N,00855.9698,W,8.83,119.88,250507,,*18
$GPGGA,151940.686,4010.9019,N,00855.9671,W,1,08,0.9,62.4,M,51.0,M,0.0,0000*50
$GPGSA,A,3,21,29,27,02,10,08,26,28,,,,,1.6,0.9,1.3*36
$GPRMC,151940.686,A,4010.9019,N,00855.9671,W,8.61,122.75,250507,,*1D
$GPGGA,151941.686,4010.9005,N,00855.9646,W,1,09,0.9,62.7,M,51.0,M,0.0,0000*5A
$GPGSA,A,3,21,29,27,02,10,24,08,26,28,,,,1.6,0.9,1.3*30
$GPRMC,151941.686,A,4010.9005,N,00855.9646,W,8.63,127.71,250507,,*16
$GPGGA,151942.685,4010.8991,N,00855.9620,W,1,09,0.9,63.1,M,51.0,M,0.0,0000*58
$GPGSA,A,3,21,29,27,02,10,24,08,26,28,,,,1.6,0.9,1.3*30
$GPRMC,151942.685,A,4010.8991,N,00855.9620,W,8.72,125.99,250507,,*17
$GPGGA,151943.685,4010.8977,N,00855.9592,W,1,09,0.9,63.6,M,51.0,M,0.0,0000*5C
$GPGSA,A,3,21,29,27,02,10,24,08,26,28,,,,1.6,0.9,1.3*30
$GPGSV,3,1,09,10,75,166,48,29,58,315,49,26,47,300,45,08,45,047,34*78
$GPGSV,3,2,09,28,39,106,49,24,30,279,37,27,20,049,30,21,12,315,42*7E
$GPGSV,3,3,09,02,10,197,34*4B
$GPRMC,151943.685,A,4010.8977,N,00855.9592,W,9.18,121.37,250507,,*19
$GPGGA,151944.685,4010.8964,N,00855.9564,W,1,09,0.9,63.8,M,51.0,M,0.0,0000*5E
$GPGSA,A,3,21,29,27,02,10,24,08,26,28,,,,1.6,0.9,1.3*30
$GPRMC,151944.685,A,4010.8964,N,00855.9564,W,9.73,120.51,250507,,*19
$GPGGA,151945.685,4010.8950,N,00855.9534,W,1,09,0.9,64.0,M,51.0,M,0.0,0000*52
$GPGSA,A,3,21,29,27,02,10,24,08,26,28,,,,1.6,0.9,1.3*30
$GPRMC,151945.685,A,4010.8950,N,00855.9534,W,10.04,124.59,250507,,*2E
$GPGGA,151946.685,4010.8934,N,00855.9505,W,1,09,0.9,64.1,M,51.0,M,0.0,0000*50
$GPGSA,A,3,21,29,27,02,10,24,08,26,28,,,,1.6,0.9,1.3*30
$GPRMC,151946.685,A,4010.8934,N,00855.9505,W,10.48,124.94,250507,,*24
$GPGGA,151947.685,4010.8918,N,00855.9474,W,1,09,0.9,64.2,M,51.0,M,0.0,0000*5B
$GPGSA,A,3,21,29,27,02,10,24,08,26,28,,,,1.6,0.9,1.3*30
$GPRMC,151947.685,A,4010.8918,N,00855.9474,W,10.48,124.26,250507,,*25
$GPGGA,151948.685,4010.8902,N,00855.9443,W,1,09,0.9,64.4,M,51.0,M,0.0,0000*5D
$GPGSA,A,3,21,29,27,02,10,24,08,26,28,,,,1.6,0.9,1.3*30
$GPGSV,3,1,09,10,75,166,48,29,58,315,51,26,47,300,47,08,45,047,36*71
$GPGSV,3,2,09,28,39,106,45,24,30,279,43,27,20,049,35,21,12,315,46*70
$GPGSV,3,3,09,02,10,197,33*4C
$GPRMC,151948.685,A,4010.8902,N,00855.9443,W,10.34,121.87,250507,,*20
$GPGGA,151949.685,4010.8888,N,00855.9412,W,1,09,0.9,64.4,M,51.0,M,0.0,0000*5B
$GPGSA,A,3,21,29,27,02,10,24,08,26,28,,,,1.6,0.9,1.3*30
$GPRMC,151949.685,A,4010.8888,N,00855.9412,W,10.08,120.89,250507,,*26
$GPGGA,151950.685,4010.8873,N,00855.9382,W,1,09,0.9,64.2,M,51.0,M,0.0,0000*5F
$GPGSA,A,3,21,29,27,02,10,24,08,26,28,,,,1.6,0.9,1.3*30
$GPRMC,151950.685,A,4010.8873,N,00855.9382,W,9.77,122.90,250507,,*1E
$GPGGA,151951.685,4010.8859,N,00855.9355,W,1,09,0.9,63.8,M,51.0,M,0.0,0000*51
$GPGSA,A,3,21,29,27,02,10,24,08,26,28,,,,1.6,0.9,1.3*30
$GPRMC,151951.685,A,4010.8859,N,00855.9355,W,9.18,124.99,250507,,*1B
$GPGGA,151952.685,4010.8845,N,00855.9328,W,1,09,0.9,63.5,M,51.0,M,0.0,0000*58
$GPGSA,A,3,21,29,27,02,10,24,08,26,28,,,,1.6,0.9,1.3*30
$GPRMC,151952.685,A,4010.8845,N,00855.9328,W,9.04,122.89,250507,,*15
$GPGGA,151953.685,4010.8832,N,00855.9301,W,1,09,0.9,63.3,M,51.0,M,0.0,0000*54
$GPGSA,A,3,21,29,27,02,10,24,08,26,28,,,,1.6,0.9,1.3*30
$GPGSV,3,1,09,10,75,166,45,29,58,315,51,26,47,300,49,08,45,047,39*7D
$GPGSV,3,2,09,28,39,106,47,24,30,279,36,27,20,049,38,21,12,315,43*78
$GPGSV,3,3,09,02,10,197,37*48
$GPRMC,151953.685,A,4010.8832,N,00855.9301,W,8.89,119.81,250507,,*1B
$GPGGA,151954.685,4010.8819,N,00855.9273,W,1,09,0.9,63.0,M,51.0,M,0.0,0000*5D
$GPGSA,A,3,21,29,27,02,10,24,08,26,28,,,,1.6,0.9,1.3*30
$GPRMC,151954.685,A,4010.8819,N,00855.9273,W,8.74,120.19,250507,,*18
$GPGGA,151955.685,4010.8806,N,00855.9245,W,1,09,0.9,63.0,M,51.0,M,0.0,0000*57
$GPGSA,A,3,21,29,27,02,10,24,08,26,28,,,,1.6,0.9,1.3*30
$GPRMC,151955.685,A,4010.8806,N,00855.9245,W,8.94,123.21,250507,,*14
$GPGGA,151956.685,4010.8792,N,00855.9216,W,1,09,0.9,63.3,M,51.0,M,0.0,0000*53
$GPGSA,A,3,21,29,27,02,10,24,08,26,28,,,,1.6,0.9,1.3*30
$GPRMC,151956.685,A,4010.8792,N,00855.9216,W,9.24,122.87,250507,,*14
$GPGGA,151957.685,4010.8779,N,00855.9184,W,1,09,0.9,63.7,M,51.0,M,0.0,0000*5B
$GPGSA,A,3,21,29,27,02,10,24,08,26,28,,,,1.6,0.9,1.3*30
$GPRMC,151957.685,A,4010.8779,N,00855.9184,W,9.43,120.77,250507,,*14
$GPGGA,151958.685,4010.8766,N,00855.9151,W,1,09,0.9,64.3,M,51.0,M,0.0,0000*51
$GPGSA,A,3,21,29,27,02,10,24,08,26,28,,,,1.6,0.9,1.3*30
$GPGSV,3,1,09,10,75,166,46,29,58,315,51,26,47,300,47,08,45,047,34*7D
$GPGSV,3,2,09,28,39,106,48,24,30,279,34,27,20,049,37,21,12,315,45*7C
$GPGSV,3,3,09,02,10,197,42*4A
$GPRMC,151958.685,A,4010.8766,N,00855.9151,W,9.70,121.52,250507,,*1B
$GPGGA,151959.684,4010.8752,N,00855.9119,W,1,09,0.9,64.6,M,51.0,M,0.0,0000*5F
$GPGSA,A,3,21,29,27,02,10,24,08,26,28,,,,1.6,0.9,1.3*30
$GPRMC,151959.684,A,4010.8752,N,00855.9119,W,9.86,123.49,250507,,*11
$GPGGA,152000.684,4010.8736,N,00855.9088,W,1,09,0.9,64.7,M,51.0,M,0.0,0000*53
$GPGSA,A,3,21,29,27,02,10,24,08,26,28,,,,1.6,0.9,1.3*30
$GPRMC,152000.684,A,4010.8736,N,00855.9088,W,9.87,125.68,250507,,*18
$GPGGA,152001.684,4010.8721,N,00855.9060,W,1,09,0.9,64.9,M,51.0,M,0.0,0000*5C
$GPGSA,A,3,21,29,27,02,10,24,08,26,28,,,,1.6,0.9,1.3*30
$GPRMC,152001.684,A,4010.8721,N,00855.9060,W,9.86,125.86,250507,,*18
$GPGGA,152002.684,4010.8706,N,00855.9032,W,1,09,0.9,64.9,M,51.0,M,0.0,0000*5D
$GPGSA,A,3,21,29,27,02,10,24,08,26,28,,,,1.6,0.9,1.3*30
$GPRMC,152002.684,A,4010.8706,N,00855.9032,W,9.50,122.49,250507,,*16
$GPGGA,152003.684,4010.8691,N,00855.9004,W,1,09,0.9,64.9,M,51.0,M,0.0,0000*56
$GPGSA,A,3,21,29,27,02,10,24,08,26,28,,,,1.6,0.9,1.3*30
$GPGSV,3,1,09,10,75,166,47,29,58,315,51,26,47,300,48,08,45,047,37*70
$GPGSV,3,2,09,28,39,106,48,24,30,279,42,27,20,049,38,21,12,315,44*73
$GPGSV,3,3,09,02,10,197,40*48
$GPRMC,152003.684,A,4010.8691,N,00855.9004,W,9.58,124.37,250507,,*1A
$GPGGA,152004.684,4010.8676,N,00855.8977,W,1,09,0.9,64.8,M,51.0,M,0.0,0000*55
$GPGSA,A,3,21,29,27,02,10,24,08,26,28,,,,1.6,0.9,1.3*30
$GPRMC,152004.684,A,4010.8676,N,00855.8977,W,9.49,124.82,250507,,*16
$GPGGA,152005.684,4010.8661,N,00855.8950,W,1,09,0.9,64.6,M,51.0,M,0.0,0000*59
$GPGSA,A,3,21,29,27,02,10,24,08,26,28,,,,1.6,0.9,1.3*30
$GPRMC,152005.684,A,4010.8661,N,00855.8950,W,9.49,124.15,250507,,*1A
$GPGGA,152006.684,4010.8646,N,00855.8923,W,1,09,0.9,64.4,M,51.0,M,0.0,0000*59
$GPGSA,A,3,21,29,27,02,10,24,08,26,28,,,,1.6,0.9,1.3*30
$GPRMC,152006.684,A,4010.8646,N,00855.8923,W,9.52,124.10,250507,,*17
$GPGGA,152007.684,4010.8632,N,00855.8896,W,1,09,0.9,64.2,M,51.0,M,0.0,0000*52
$GPGSA,A,3,21,29,27,02,10,24,08,26,28,,,,1.6,0.9,1.3*30
$GPRMC,152007.684,A,4010.8632,N,00855.8896,W,9.35,124.63,250507,,*1F
$GPGGA,152008.684,4010.8617,N,00855.8869,W,1,09,0.9,64.1,M,51.0,M,0.0,0000*59
$GPGSA,A,3,21,29,27,02,10,24,08,26,28,,,,1.6,0.9,1.3*30
$GPGSV,3,1,09,10,75,166,47,29,58,315,51,26,47,300,48,08,45,047,35*72
$GPGSV,3,2,09,28,39,106,49,24,30,279,43,27,20,049,37,21,12,315,46*7E
$GPGSV,3,3,09,02,10,197,43*4B
$GPRMC,152008.684,A,4010.8617,N,00855.8869,W,9.35,124.39,250507,,*18
$GPGGA,152009.684,4010.8602,N,00855.8841,W,1,09,0.9,63.8,M,51.0,M,0.0,0000*58
$GPGSA,A,3,21,29,27,02,10,24,08,26,28,,,,1.6,0.9,1.3*30
$GPRMC,152009.684,A,4010.8602,N,00855.8841,W,9.49,125.28,250507,,*1D
$GPGGA,152010.684,4010.8588,N,00855.8813,W,1,09,0.9,63.5,M,51.0,M,0.0,0000*5B
$GPGSA,A,3,21,29,27,02,10,24,08,26,28,,,,1.6,0.9,1.3*30
$GPRMC,152010.684,A,4010.8588,N,00855.8813,W,9.38,125.40,250507,,*1B
$GPGGA,152011.684,4010.8574,N,00855.8785,W,1,09,0.9,63.5,M,51.0,M,0.0,0000*59
$GPGSA,A,3,21,29,27,02,10,24,08,26,28,,,,1.6,0.9,1.3*30
$GPRMC,152011.684,A,4010.8574,N,00855.8785,W,9.41,123.51,250507,,*11
$GPGGA,152012.684,4010.8559,N,00855.8756,W,1,08,0.9,63.6,M,51.0,M,0.0,0000*59
$GPGSA,A,3,21,29,27,02,10,24,26,28,,,,,1.6,0.9,1.3*38
$GPRMC,152012.684,A,4010.8559,N,00855.8756,W,9.62,123.45,250507,,*17
$GPGGA,152013.684,4010.8544,N,00855.8728,W,1,08,0.9,63.7,M,51.0,M,0.0,0000*5C
$GPGSA,A,3,21,29,27,02,10,24,26,28,,,,,1.6,0.9,1.3*38
$GPGSV,3,1,09,10,75,166,44,29,58,315,50,26,47,300,45,08,45,047,27*7E
$GPGSV,3,2,09,28,39,106,50,24,30,279,34,27,20,049,37,21,12,315,47*77
$GPGSV,3,3,09,02,10,197,41*49
$GPRMC,152013.684,A,4010.8544,N,00855.8728,W,9.56,126.44,250507,,*10
$GPGGA,152014.684,4010.8528,N,00855.8700,W,1,09,0.9,63.8,M,51.0,M,0.0,0000*55
$GPGSA,A,3,21,29,27,02,10,24,08,26,28,,,,1.6,0.9,1.3*30
$GPRMC,152014.684,A,4010.8528,N,00855.8700,W,9.51,129.12,250507,,*1C
$GPGGA,152015.683,4010.8512,N,00855.8673,W,1,09,0.9,63.8,M,51.0,M,0.0,0000*5F
$GPGSA,A,3,21,29,27,02,10,24,08,26,28,,,,1.6,0.9,1.3*30
$GPRMC,152015.683,A,4010.8512,N,00855.8673,W,9.66,127.36,250507,,*1A
$GPGGA,152016.683,4010.8496,N,00855.8645,W,1,09,0.9,63.9,M,51.0,M,0.0,0000*55
$GPGSA,A,3,21,29,27,02,10,24,08,26,28,,,,1.6,0.9,1.3*30
$GPRMC,152016.683,A,4010.8496,N,00855.8645,W,9.61,125.03,250507,,*12
$GPGGA,152017.683,4010.8482,N,00855.8617,W,1,09,0.9,63.9,M,51.0,M,0.0,0000*56
$GPGSA,A,3,21,29,27,02,10,24,08,26,28,,,,1.6,0.9,1.3*30
$GPRMC,152017.683,A,4010.8482,N,00855.8617,W,9.44,122.78,250507,,*1D
$GPGGA,152018.683,4010.8467,N,00855.8590,W,1,09,0.9,63.8,M,51.0,M,0.0,0000*5F
$GPGSA,A,3,21,29,27,02,10,24,08,26,28,,,,1.6,0.9,1.3*30
$GPGSV,3,1,09,10,75,166,45,29,58,315,50,26,47,300,49,08,45,047,37*72
$GPGSV,3,2,09,28,39,105,47,24,30,279,40,27,20,049,38,21,12,315,42*7B
$GPGSV,3,3,09,02,09,196,40*41
$GPRMC,152018.683,A,4010.8467,N,00855.8590,W,9.38,125.44,250507,,*16
$GPGGA,152019.683,4010.8452,N,00855.8563,W,1,09,0.9,63.6,M,51.0,M,0.0,0000*5A
$GPGSA,A,3,21,29,27,02,10,24,08,26,28,,,,1.6,0.9,1.3*30
$GPRMC,152019.683,A,4010.8452,N,00855.8563,W,9.35,126.21,250507,,*10
$GPGGA,152020.683,4010.8437,N,00855.8536,W,1,09,0.9,63.5,M,51.0,M,0.0,0000*50
$GPGSA,A,3,21,29,27,02,10,24,08,26,28,,,,1.6,0.9,1.3*30
$GPRMC,152020.683,A,4010.8437,N,00855.8536,W,9.30,124.27,250507,,*18
$GPGGA,152021.683,4010.8422,N,00855.8508,W,1,09,0.9,63.3,M,51.0,M,0.0,0000*5E
$GPGSA,A,3,21,29,27,02,10,24,08,26,28,,,,1.6,0.9,1.3*30
$GPRMC,152021.683,A,4010.8422,N,00855.8508,W,9.31,124.06,250507,,*12
$GPGGA,152022.683,4010.8408,N,00855.8480,W,1,09,0.9,63.0,M,51.0,M,0.0,0000*57
$GPGSA,A,3,21,29,27,02,10,24,08,26,28,,,,1.6,0.9,1.3*30
$GPRMC,152022.683,A,4010.8408,N,00855.8480,W,9.39,124.43,250507,,*11
$GPGGA,152023.683,4010.8394,N,00855.8450,W,1,09,0.9,62.9,M,51.0,M,0.0,0000*51
$GPGSA,A,3,21,29,27,02,10,24,08,26,28,,,,1.6,0.9,1.3*30
$GPGSV,3,1,09,10,75,166,47,29,58,315,50,26,47,300,48,08,45,047,31*77
$GPGSV,3,2,09,28,39,105,48,24,30,279,36,27,20,049,36,21,12,315,48*71
$GPGSV,3,3,09,02,09,196,38*4E
$GPRMC,152023.683,A,4010.8394,N,00855.8450,W,9.64,123.95,250507,,*1B
$GPGGA,152024.683,4010.8379,N,00855.8420,W,1,09,0.9,63.0,M,51.0,M,0.0,0000*5A
$GPGSA,A,3,21,29,27,02,10,24,08,26,28,,,,1.6,0.9,1.3*30
$GPRMC,152024.683,A,4010.8379,N,00855.8420,W,9.83,124.29,250507,,*11
$GPGGA,152025.683,4010.8363,N,00855.8389,W,1,09,0.9,63.0,M,51.0,M,0.0,0000*54
$GPGSA,A,3,21,29,27,02,10,24,08,26,28,,,,1.6,0.9,1.3*30
$GPRMC,152025.683,A,4010.8363,N,00855.8389,W,9.90,125.03,250507,,*14
$GPGGA,152026.683,4010.8347,N,00855.8360,W,1,09,0.9,63.1,M,51.0,M,0.0,0000*57
$GPGSA,A,3,21,29,27,02,10,24,08,26,28,,,,1.6,0.9,1.3*30
$GPRMC,152026.683,A,4010.8347,N,00855.8360,W,9.99,127.18,250507,,*17
$GPGGA,152027.683,4010.8331,N,00855.8331,W,1,09,0.9,62.9,M,51.0,M,0.0,0000*5A
$GPGSA,A,3,21,29,27,02,10,24,08,26,28,,,,1.6,0.9,1.3*30
$GPRMC,152027.683,A,4010.8331,N,00855.8331,W,9.85,125.66,250507,,*15
$GPGGA,152028.683,4010.8315,N,00855.8303,W,1,09,0.9,62.9,M,51.0,M,0.0,0000*52
$GPGSA,A,3,21,29,27,02,10,24,08,26,28,,,,1.6,0.9,1.3*30
$GPGSV,3,1,09,10,75,166,46,29,58,315,50,26,47,300,49,08,45,047,38*7E
$GPGSV,3,2,09,28,39,105,46,24,30,279,45,27,20,049,32,21,12,315,44*73
$GPGSV,3,3,09,02,09,196,37*41
$GPRMC,152028.683,A,4010.8315,N,00855.8303,W,9.55,122.91,250507,,*1F
$GPGGA,152029.683,4010.8301,N,00855.8275,W,1,09,0.9,62.8,M,51.0,M,0.0,0000*57
$GPGSA,A,3,21,29,27,02,10,24,08,26,28,,,,1.6,0.9,1.3*30
$GPRMC,152029.683,A,4010.8301,N,00855.8275,W,9.47,121.31,250507,,*11
$GPGGA,152030.683,4010.8287,N,00855.8247,W,1,09,0.9,62.8,M,51.0,M,0.0,0000*51
$GPGSA,A,3,21,29,27,02,10,24,08,26,28,,,,1.6,0.9,1.3*30
$GPRMC,152030.683,A,4010.8287,N,00855.8247,W,9.25,122.78,250507,,*1D
$GPGGA,152031.682,4010.8272,N,00855.8219,W,1,09,0.9,63.0,M,51.0,M,0.0,0000*59
$GPGSA,A,3,21,29,27,02,10,24,08,26,28,,,,1.6,0.9,1.3*30
$GPRMC,152031.682,A,4010.8272,N,00855.8219,W,9.20,125.20,250507,,*13
$GPGGA,152032.682,4010.8257,N,00855.8193,W,1,09,0.9,63.0,M,51.0,M,0.0,0000*5C
$GPGSA,A,3,21,29,27,02,10,24,08,26,28,,,,1.6,0.9,1.3*30
$GPRMC,152032.682,A,4010.8257,N,00855.8193,W,9.15,125.25,250507,,*15
$GPGGA,152033.682,4010.8242,N,00855.8166,W,1,09,0.9,63.2,M,51.0,M,0.0,0000*51
$GPGSA,A,3,21,29,27,02,10,24,08,26,28,,,,1.6,0.9,1.3*30
$GPGSV,3,1,09,10,75,166,47,29,58,315,52,26,47,300,48,08,45,047,34*70
$GPGSV,3,2,09,28,39,105,50,24,30,279,39,27,20,049,37,21,12,315,47*79
$GPGSV,3,3,09,02,09,196,32*44
$GPRMC,152033.682,A,4010.8242,N,00855.8166,W,9.29,124.51,250507,,*17
$GPGGA,152034.682,4010.8227,N,00855.8138,W,1,09,0.9,63.5,M,51.0,M,0.0,0000*59
$GPGSA,A,3,21,29,27,02,10,24,08,26,28,,,,1.6,0.9,1.3*30
$GPRMC,152034.682,A,4010.8227,N,00855.8138,W,9.46,123.74,250507,,*11
$GPGGA,152035.682,4010.8213,N,00855.8109,W,1,09,0.9,63.6,M,51.0,M,0.0,0000*5E
$GPGSA,A,3,21,29,27,02,10,24,08,26,28,,,,1.6,0.9,1.3*30
$GPRMC,152035.682,A,4010.8213,N,00855.8109,W,9.57,122.91,250507,,*1F
$GPGGA,152036.682,4010.8197,N,00855.8081,W,1,09,0.9,63.8,M,51.0,M,0.0,0000*5D
$GPGSA,A,3,21,29,27,02,10,24,08,26,28,,,,1.6,0.9,1.3*30
$GPRMC,152036.682,A,4010.8197,N,00855.8081,W,9.62,125.10,250507,,*1A
$GPGGA,152037.682,4010.8181,N,00855.8051,W,1,09,0.9,64.0,M,51.0,M,0.0,0000*59
$GPGSA,A,3,21,29,27,02,10,24,08,26,28,,,,1.6,0.9,1.3*30
$GPRMC,152037.682,A,4010.8181,N,00855.8051,W,9.82,127.59,250507,,*10
$GPGGA,152038.682,4010.8165,N,00855.8023,W,1,09,0.9,63.9,M,51.0,M,0.0,0000*57
$GPGSA,A,3,21,29,27,02,10,24,08,26,28,,,,1.6,0.9,1.3*30
$GPGSV,3,1,09,10,75,166,47,29,58,315,50,26,47,300,49,08,45,047,37*70
$GPGSV,3,2,09,28,39,105,49,24,30,279,42,27,20,049,31,21,12,315,43*7F
$GPGSV,3,3,09,02,09,196,28*4F
$GPRMC,152038.682,A,4010.8165,N,00855.8023,W,9.70,127.12,250507,,*12
$GPGGA,152039.682,4010.8150,N,00855.7994,W,1,09,0.9,63.7,M,51.0,M,0.0,0000*54
$GPGSA,A,3,21,29,27,02,10,24,08,26,28,,,,1.6,0.9,1.3*30
$GPRMC,152039.682,A,4010.8150,N,00855.7994,W,9.57,123.16,250507,,*1A
$GPGGA,152040.682,4010.8136,N,00855.7966,W,1,09,0.9,63.6,M,51.0,M,0.0,0000*56
$GPGSA,A,3,21,29,27,02,10,24,08,26,28,,,,1.6,0.9,1.3*30
$GPRMC,152040.682,A,4010.8136,N,00855.7966,W,9.53,123.09,250507,,*13
$GPGGA,152041.682,4010.8122,N,00855.7938,W,1,09,0.9,63.5,M,51.0,M,0.0,0000*5A
$GPGSA,A,3,21,29,27,02,10,24,08,26,28,,,,1.6,0.9,1.3*30
$GPRMC,152041.682,A,4010.8122,N,00855.7938,W,9.33,124.94,250507,,*19
$GPGGA,152042.682,4010.8107,N,00855.7911,W,1,09,0.9,63.4,M,51.0,M,0.0,0000*54
$GPGSA,A,3,21,29,27,02,10,24,08,26,28,,,,1.6,0.9,1.3*30
$GPRMC,152042.682,A,4010.8107,N,00855.7911,W,9.19,125.68,250507,,*1C
$GPGGA,152043.682,4010.8093,N,00855.7885,W,1,09,0.9,63.3,M,51.0,M,0.0,0000*52
$GPGSA,A,3,21,29,27,02,10,24,08,26,28,,,,1.6,0.9,1.3*30
$GPGSV,3,1,09,10,75,166,45,29,58,315,51,26,47,300,49,08,45,047,34*70
$GPGSV,3,2,09,28,39,105,48,24,30,279,37,27,20,049,37,21,12,315,46*7F
$GPGSV,3,3,09,02,09,196,40*41
$GPRMC,152043.682,A,4010.8093,N,00855.7885,W,9.17,124.49,250507,,*11
$GPGGA,152044.682,4010.8079,N,00855.7856,W,1,09,0.9,63.4,M,51.0,M,0.0,0000*58
$GPGSA,A,3,21,29,27,02,10,24,08,26,28,,,,1.6,0.9,1.3*30
$GPRMC,152044.682,A,4010.8079,N,00855.7856,W,9.36,121.83,250507,,*1C
$GPGGA,152045.682,4010.8065,N,00855.7827,W,1,09,0.9,63.5,M,51.0,M,0.0,0000*53
$GPGSA,A,3,21,29,27,02,10,24,08,26,28,,,,1.6,0.9,1.3*30
$GPRMC,152045.682,A,4010.8065,N,00855.7827,W,9.49,124.07,250507,,*17
$GPGGA,152046.682,4010.8050,N,00855.7798,W,1,09,0.9,63.5,M,51.0,M,0.0,0000*5D
$GPGSA,A,3,21,29,27,02,10,24,08,26,28,,,,1.6,0.9,1.3*30
$GPRMC,152046.682,A,4010.8050,N,00855.7798,W,9.78,126.73,250507,,*1A
$GPGGA,152047.681,4010.8034,N,00855.7769,W,1,09,0.9,63.3,M,51.0,M,0.0,0000*55
$GPGSA,A,3,21,29,27,02,10,24,08,26,28,,,,1.6,0.9,1.3*30
$GPRMC,152047.681,A,4010.8034,N,00855.7769,W,10.05,125.56,250507,,*22
$GPGGA,152048.681,4010.8018,N,00855.7740,W,1,09,0.9,63.1,M,51.0,M,0.0,0000*5D
$GPGSA,A,3,21,29,27,02,10,24,08,26,28,,,,1.6,0.9,1.3*30
$GPGSV,3,1,09,10,74,166,47,29,58,316,51,26,47,300,49,08,44,047,34*71
$GPGSV,3,2,09,28,39,105,49,24,30,279,41,27,20,049,36,21,12,315,46*7E
$GPGSV,3,3,09,02,09,196,37*41
$GPRMC,152048.681,A,4010.8018,N,00855.7740,W,10.05,125.44,250507,,*2B
$GPGGA,152049.681,4010.8002,N,00855.7711,W,1,09,0.9,62.9,M,51.0,M,0.0,0000*5A
$GPGSA,A,3,21,29,27,02,10,24,08,26,28,,,,1.6,0.9,1.3*30
$GPRMC,152049.681,A,4010.8002,N,00855.7711,W,10.10,125.56,250507,,*22
$GPGGA,152050.681,4010.7986,N,00855.7682,W,1,09,0.9,62.7,M,51.0,M,0.0,0000*5D
$GPGSA,A,3,21,29,27,02,10,24,08,26,28,,,,1.6,0.9,1.3*30
$GPRMC,152050.681,A,4010.7986,N,00855.7682,W,9.90,127.32,250507,,*1B
$GPGGA,152051.681,4010.7970,N,00855.7654,W,1,09,0.9,62.4,M,51.0,M,0.0,0000*5D
$GPGSA,A,3,21,29,27,02,10,24,08,26,28,,,,1.6,0.9,1.3*30
$GPRMC,152051.681,A,4010.7970,N,00855.7654,W,9.67,126.93,250507,,*1A
$GPGGA,152052.681,4010.7955,N,00855.7626,W,1,09,0.9,62.1,M,51.0,M,0.0,0000*59
$GPGSA,A,3,21,29,27,02,10,24,08,26,28,,,,1.6,0.9,1.3*30
$GPRMC,152052.681,A,4010.7955,N,00855.7626,W,9.25,124.93,250507,,*1F
$GPGGA,152053.681,4010.7941,N,00855.7599,W,1,09,0.9,61.6,M,51.0,M,0.0,0000*5E
$GPGSA,A,3,21,29,27,02,10,24,08,26,28,,,,1.6,0.9,1.3*30
$GPGSV,3,1,09,10,74,166,46,29,58,316,50,26,47,300,50,08,44,047,36*7B
$GPGSV,3,2,09,28,39,105,49,24,30,279,41,27,20,049,33,21,12,315,44*79
$GPGSV,3,3,09,02,09,196,39*4F
$GPRMC,152053.681,A,4010.7941,N,00855.7599,W,9.04,123.94,250507,,*1F
$GPGGA,152054.681,4010.7928,N,00855.7572,W,1,09,0.9,61.0,M,51.0,M,0.0,0000*55
$GPGSA,A,3,21,29,27,02,10,24,08,26,28,,,,1.6,0.9,1.3*30
$GPRMC,152054.681,A,4010.7928,N,00855.7572,W,8.85,124.92,250507,,*1B
$GPGGA,152055.681,4010.7914,N,00855.7546,W,1,09,0.9,60.7,M,51.0,M,0.0,0000*5A
$GPGSA,A,3,21,29,27,02,10,24,08,26,28,,,,1.6,0.9,1.3*30
$GPRMC,152055.681,A,4010.7914,N,00855.7546,W,8.78,125.64,250507,,*18
$GPGGA,152056.681,4010.7901,N,00855.7520,W,1,09,0.9,60.7,M,51.0,M,0.0,0000*5D
$GPGSA,A,3,21,29,27,02,10,24,08,26,28,,,,1.6,0.9,1.3*30
$GPRMC,152056.681,A,4010.7901,N,00855.7520,W,8.83,124.08,250507,,*10
$GPGGA,152057.681,4010.7887,N,00855.7493,W,1,09,0.9,60.8,M,51.0,M,0.0,0000*55
$GPGSA,A,3,21,29,27,02,10,24,08,26,28,,,,1.6,0.9,1.3*30
$GPRMC,152057.681,A,4010.7887,N,00855.7493,W,8.97,125.76,250507,,*1A
$GPGGA,152058.681,4010.7871,N,00855.7467,W,1,09,0.9,60.9,M,51.0,M,0.0,0000*59
$GPGSA,A,3,21,29,27,02,10,24,08,26,28,,,,1.6,0.9,1.3*30
$GPGSV,3,1,09,10,74,166,47,29,58,316,50,26,47,300,47,08,44,047,36*7C
$GPGSV,3,2,09,28,39,105,49,24,30,279,37,27,20,049,36,21,12,315,46*7F
$GPGSV,3,3,09,02,09,196,42*43
$GPRMC,152058.681,A,4010.7871,N,00855.7467,W,9.23,127.91,250507,,*12
$GPGGA,152059.681,4010.7856,N,00855.7439,W,1,09,0.9,61.3,M,51.0,M,0.0,0000*5D
$GPGSA,A,3,21,29,27,02,10,24,08,26,28,,,,1.6,0.9,1.3*30
$GPRMC,152059.681,A,4010.7856,N,00855.7439,W,9.60,127.07,250507,,*15
$GPGGA,152100.681,4010.7840,N,00855.7410,W,1,09,0.9,61.8,M,51.0,M,0.0,0000*57
$GPGSA,A,3,21,29,27,02,10,24,08,26,28,,,,1.6,0.9,1.3*30
$GPRMC,152100.681,A,4010.7840,N,00855.7410,W,9.78,124.67,250507,,*18
$GPGGA,152101.681,4010.7825,N,00855.7380,W,1,09,0.9,62.4,M,51.0,M,0.0,0000*54
$GPGSA,A,3,21,29,27,02,10,24,08,26,28,,,,1.6,0.9,1.3*30
$GPRMC,152101.681,A,4010.7825,N,00855.7380,W,10.00,127.90,250507,,*28
$GPGGA,152102.681,4010.7808,N,00855.7352,W,1,09,0.9,62.7,M,51.0,M,0.0,0000*54
$GPGSA,A,3,21,29,27,02,10,24,08,26,28,,,,1.6,0.9,1.3*30
$GPRMC,152102.681,A,4010.7808,N,00855.7352,W,10.21,127.73,250507,,*25
$GPGGA,152103.680,4010.7791,N,00855.7322,W,1,09,0.9,62.9,M,51.0,M,0.0,0000*52
$GPGSA,A,3,21,29,27,02,10,24,08,26,28,,,,1.6,0.9,1.3*30
$GPGSV,3,1,09,10,74,166,46,29,58,316,51,26,47,300,48,08,44,047,31*74
$GPGSV,3,2,09,28,39,105,50,24,30,279,33,27,20,049,34,21,12,315,48*7F
$GPGSV,3,3,09,02,09,196,39*4F
$GPRMC,152103.680,A,4010.7791,N,00855.7322,W,9.95,124.81,250507,,*14
$GPGGA,152104.680,4010.7775,N,00855.7292,W,1,09,0.9,63.2,M,51.0,M,0.0,0000*5F
$GPGSA,A,3,21,29,27,02,10,24,08,26,28,,,,1.6,0.9,1.3*30
$GPRMC,152104.680,A,4010.7775,N,00855.7292,W,9.80,124.23,250507,,*1F
$GPGGA,152105.680,4010.7760,N,00855.7263,W,1,08,0.9,63.3,M,51.0,M,0.0,0000*54
$GPGSA,A,3,21,29,27,02,10,24,26,28,,,,,1.6,0.9,1.3*38
$GPRMC,152105.680,A,4010.7760,N,00855.7263,W,9.71,126.59,250507,,*15
$GPGGA,152106.680,4010.7744,N,00855.7235,W,1,08,0.9,63.3,M,51.0,M,0.0,0000*52
$GPGSA,A,3,21,29,27,02,10,24,26,28,,,,,1.6,0.9,1.3*38
$GPRMC,152106.680,A,4010.7744,N,00855.7235,W,9.40,127.70,250507,,*1B
$GPGGA,152107.680,4010.7728,N,00855.7208,W,1,09,0.9,63.0,M,51.0,M,0.0,0000*55
$GPGSA,A,3,21,29,27,02,10,24,08,26,28,,,,1.6,0.9,1.3*30
$GPRMC,152107.680,A,4010.7728,N,00855.7208,W,9.31,127.24,250507,,*19
$GPGGA,152108.680,4010.7713,N,00855.7181,W,1,09,0.9,62.7,M,51.0,M,0.0,0000*56
$GPGSA,A,3,21,29,27,02,10,24,08,26,28,,,,1.6,0.9,1.3*30
$GPGSV,3,1,09,10,74,166,47,29,58,316,51,26,47,300,50,08,44,047,36*7B
$GPGSV,3,2,09,28,39,105,50,24,30,279,43,27,20,049,36,21,12,315,44*76
$GPGSV,3,3,09,02,09,196,42*43
$GPRMC,152108.680,A,4010.7713,N,00855.7181,W,9.24,125.77,250507,,*1C
$GPGGA,152109.680,4010.7698,N,00855.7155,W,1,09,0.9,62.4,M,51.0,M,0.0,0000*5F
$GPGSA,A,3,21,29,27,02,10,24,08,26,28,,,,1.6,0.9,1.3*30
$GPRMC,152109.680,A,4010.7698,N,00855.7155,W,9.29,126.43,250507,,*1F
$GPGGA,152110.680,4010.7682,N,00855.7129,W,1,09,0.9,62.1,M,51.0,M,0.0,0000*52
$GPGSA,A,3,21,29,27,02,10,24,08,26,28,,,,1.6,0.9,1.3*30
$GPRMC,152110.680,A,4010.7682,N,00855.7129,W,9.31,128.21,250507,,*14
$GPGGA,152111.680,4010.7666,N,00855.7103,W,1,09,0.9,61.8,M,51.0,M,0.0,0000*5B
$GPGSA,A,3,21,29,27,02,10,24,08,26,28,,,,1.6,0.9,1.3*30
$GPRMC,152111.680,A,4010.7666,N,00855.7103,W,9.32,126.69,250507,,*16
$GPGGA,152112.680,4010.7650,N,00855.7078,W,1,09,0.9,61.4,M,51.0,M,0.0,0000*5C
$GPGSA,A,3,21,29,27,02,10,24,08,26,28,,,,1.6,0.9,1.3*30
$GPRMC,152112.680,A,4010.7650,N,00855.7078,W,9.26,127.04,250507,,*12
$GPGGA,152113.680,4010.7634,N,00855.7053,W,1,09,0.9,61.0,M,51.0,M,0.0,0000*52
$GPGSA,A,3,21,29,27,02,10,24,08,26,28,,,,1.6,0.9,1.3*30
$GPGSV,3,1,09,10,74,166,46,29,58,316,50,26,47,300,49,08,44,047,33*76
$GPGSV,3,2,09,28,39,105,48,24,30,279,42,27,20,049,35,21,12,315,45*7C
$GPGSV,3,3,09,02,09,196,39*4F
$GPRMC,152113.680,A,4010.7634,N,00855.7053,W,9.14,128.34,250507,,*15
$GPGGA,152114.680,4010.7618,N,00855.7029,W,1,09,0.9,60.7,M,51.0,M,0.0,0000*50
$GPGSA,A,3,21,29,27,02,10,24,08,26,28,,,,1.6,0.9,1.3*30
$GPRMC,152114.680,A,4010.7618,N,00855.7029,W,9.09,126.32,250507,,*15
$GPGGA,152115.680,4010.7602,N,00855.7004,W,1,09,0.9,60.6,M,51.0,M,0.0,0000*54
$GPGSA,A,3,21,29,27,02,10,24,08,26,28,,,,1.6,0.9,1.3*30
$GPRMC,152115.680,A,4010.7602,N,00855.7004,W,8.87,125.67,250507,,*14
$GPGGA,152116.680,4010.7587,N,00855.6979,W,1,09,0.9,60.8,M,51.0,M,0.0,0000*55
$GPGSA,A,3,21,29,27,02,10,24,08,26,28,,,,1.6,0.9,1.3*30
$GPRMC,152116.680,A,4010.7587,N,00855.6979,W,8.91,125.43,250507,,*1A
$GPGGA,152117.680,4010.7572,N,00855.6952,W,1,09,0.9,61.0,M,51.0,M,0.0,0000*5E
$GPGSA,A,3,21,29,27,02,10,24,08,26,28,,,,1.6,0.9,1.3*30
$GPRMC,152117.680,A,4010.7572,N,00855.6952,W,9.18,125.93,250507,,*15
$GPGGA,152118.680,4010.7556,N,00855.6924,W,1,09,0.9,61.2,M,51.0,M,0.0,0000*54
$GPGSA,A,3,21,29,27,02,10,24,08,26,28,,,,1.6,0.9,1.3*30
$GPGSV,3,1,09,10,74,166,46,29,58,316,50,26,47,301,48,08,44,047,32*77
$GPGSV,3,2,09,28,40,104,50,24,30,278,37,27,19,049,31,21,12,314,46*75
$GPGSV,3,3,09,02,09,196,40*41
$GPRMC,152118.680,A,4010.7556,N,00855.6924,W,9.39,125.78,250507,,*1B
$GPGGA,152119.680,4010.7540,N,00855.6895,W,1,09,0.9,61.5,M,51.0,M,0.0,0000*5E
$GPGSA,A,3,21,29,27,02,10,24,08,26,28,,,,1.6,0.9,1.3*30
$GPRMC,152119.680,A,4010.7540,N,00855.6895,W,9.59,124.92,250507,,*15
$GPGGA,152120.679,4010.7524,N,00855.6865,W,1,09,0.9,61.7,M,51.0,M,0.0,0000*5D
$GPGSA,A,3,21,29,27,02,10,24,08,26,28,,,,1.6,0.9,1.3*30
$GPRMC,152120.679,A,4010.7524,N,00855.6865,W,9.89,126.21,250507,,*13
$GPGGA,152121.679,4010.7509,N,00855.6834,W,1,09,0.9,61.9,M,51.0,M,0.0,0000*59
$GPGSA,A,3,21,29,27,02,10,24,08,26,28,,,,1.6,0.9,1.3*30
$GPRMC,152121.679,A,4010.7509,N,00855.6834,W,9.96,125.72,250507,,*12
$GPGGA,152122.679,4010.7493,N,00855.6803,W,1,09,0.9,62.0,M,51.0,M,0.0,0000*56
$GPGSA,A,3,21,29,27,02,10,24,08,26,28,,,,1.6,0.9,1.3*30
$GPRMC,152122.679,A,4010.7493,N,00855.6803,W,10.17,124.06,250507,,*24
$GPGGA,152123.679,4010.7478,N,00855.6772,W,1,09,0.9,62.1,M,51.0,M,0.0,0000*5A
$GPGSA,A,3,21,29,27,02,10,24,08,26,28,,,,1.6,0.9,1.3*30
$GPGSV,3,1,09,10,74,166,46,29,58,316,51,26,47,301,48,08,44,047,33*77
$GPGSV,3,2,09,28,40,104,50,24,30,278,31,27,19,049,38,21,12,314,45*79
$GPGSV,3,3,09,02,09,196,40*41
$GPRMC,152123.679,A,4010.7478,N,00855.6772,W,10.10,124.08,250507,,*20
$GPGGA,152124.679,4010.7463,N,00855.6741,W,1,09,0.9,62.2,M,51.0,M,0.0,0000*54
$GPGSA,A,3,21,29,27,02,10,24,08,26,28,,,,1.6,0.9,1.3*30
$GPRMC,152124.679,A,4010.7463,N,00855.6741,W,10.09,125.02,250507,,*2E
$GPGGA,152125.679,4010.7448,N,00855.6712,W,1,09,0.9,62.3,M,51.0,M,0.0,0000*5B
$GPGSA,A,3,21,29,27,02,10,24,08,26,28,,,,1.6,0.9,1.3*30
$GPRMC,152125.679,A,4010.7448,N,00855.6712,W,9.87,125.53,250507,,*1A
$GPGGA,152126.679,4010.7433,N,00855.6684,W,1,08,1.5,62.2,M,51.0,M,0.0,0000*57
$GPGSA,A,3,21,29,27,10,24,08,26,28,,,,,2.4,1.5,1.9*34
$GPRMC,152126.679,A,4010.7433,N,00855.6684,W,9.58,125.45,250507,,*1E
$GPGGA,152127.679,4010.7418,N,00855.6657,W,1,09,0.9,62.2,M,51.0,M,0.0,0000*5D
$GPGSA,A,3,21,29,27,02,10,24,08,26,28,,,,1.6,0.9,1.3*30
$GPRMC,152127.679,A,4010.7418,N,00855.6657,W,9.26,124.87,250507,,*1E
$GPGGA,152128.679,4010.7405,N,00855.6630,W,1,09,0.9,61.9,M,51.0,M,0.0,0000*57
$GPGSA,A,3,21,29,27,02,10,24,08,26,28,,,,1.6,0.9,1.3*30
$GPGSV,3,1,09,10,74,166,45,29,58,316,50,26,47,301,50,08,44,047,35*7A
$GPGSV,3,2,09,28,40,104,49,24,30,278,39,27,19,049,35,21,12,314,46*77
$GPGSV,3,3,09,02,09,196,41*40
$GPRMC,152128.679,A,4010.7405,N,00855.6630,W,8.92,124.48,250507,,*11
$GPGGA,152129.679,4010.7391,N,00855.6604,W,1,09,0.9,61.8,M,51.0,M,0.0,0000*5A
$GPGSA,A,3,21,29,27,02,10,24,08,26,28,,,,1.6,0.9,1.3*30
$GPRMC,152129.679,A,4010.7391,N,00855.6604,W,8.91,123.08,250507,,*1D
$GPGGA,152130.679,4010.7377,N,00855.6577,W,1,09,0.9,61.9,M,51.0,M,0.0,0000*5C
$GPGSA,A,3,21,29,27,02,10,24,08,26,28,,,,1.6,0.9,1.3*30
$GPRMC,152130.679,A,4010.7377,N,00855.6577,W,9.04,125.81,250507,,*10
$GPGGA,152131.679,4010.7362,N,00855.6550,W,1,09,0.9,62.1,M,51.0,M,0.0,0000*57
$GPGSA,A,3,21,29,27,02,10,24,08,26,28,,,,1.6,0.9,1.3*30
$GPRMC,152131.679,A,4010.7362,N,00855.6550,W,9.05,125.79,250507,,*16
$GPGGA,152132.679,4010.7348,N,00855.6523,W,1,09,0.9,62.3,M,51.0,M,0.0,0000*5A
$GPGSA,A,3,21,29,27,02,10,24,08,26,28,,,,1.6,0.9,1.3*30
$GPRMC,152132.679,A,4010.7348,N,00855.6523,W,9.24,125.40,250507,,*10
$GPGGA,152133.679,4010.7334,N,00855.6495,W,1,09,0.9,62.4,M,51.0,M,0.0,0000*5B
$GPGSA,A,3,21,29,27,02,10,24,08,26,28,,,,1.6,0.9,1.3*30
$GPGSV,3,1,09,10,74,166,46,29,58,316,51,26,47,301,50,08,44,047,33*7E
$GPGSV,3,2,09,28,40,104,49,24,30,278,41,27,19,049,38,21,12,314,46*75
$GPGSV,3,3,09,02,09,196,37*41
$GPRMC,152133.679,A,4010.7334,N,00855.6495,W,9.37,123.82,250507,,*1C
$GPGGA,152134.679,4010.7320,N,00855.6468,W,1,09,0.9,62.4,M,51.0,M,0.0,0000*5B
$GPGSA,A,3,21,29,27,02,10,24,08,26,28,,,,1.6,0.9,1.3*30
$GPRMC,152134.679,A,4010.7320,N,00855.6468,W,9.25,123.39,250507,,*1F
$GPGGA,152135.679,4010.7306,N,00855.6440,W,1,09,0.9,62.5,M,51.0,M,0.0,0000*55
$GPGSA,A,3,21,29,27,02,10,24,08,26,28,,,,1.6,0.9,1.3*30
$GPRMC,152135.679,A,4010.7306,N,00855.6440,W,9.27,124.46,250507,,*1D
$GPGGA,152136.678,4010.7291,N,00855.6412,W,1,09,0.9,62.6,M,51.0,M,0.0,0000*5C
$GPGSA,A,3,21,29,27,02,10,24,08,26,28,,,,1.6,0.9,1.3*30
$GPRMC,152136.678,A,4010.7291,N,00855.6412,W,9.24,125.92,250507,,*1C
$GPGGA,152137.678,4010.7277,N,00855.6384,W,1,09,0.9,62.6,M,51.0,M,0.0,0000*5D
$GPGSA,A,3,21,29,27,02,10,24,08,26,28,,,,1.6,0.9,1.3*30
$GPRMC,152137.678,A,4010.7277,N,00855.6384,W,9.29,125.79,250507,,*15
$GPGGA,152138.678,4010.7263,N,00855.6356,W,1,08,1.1,62.6,M,51.0,M,0.0,0000*50
$GPGSA,A,3,21,29,02,10,24,08,26,28,,,,,1.8,1.1,1.5*34
$GPGSV,3,1,09,10,74,166,47,29,58,316,51,26,47,301,46,08,44,047,34*7F
$GPGSV,3,2,09,28,40,104,49,24,30,278,37,27,19,049,28,21,12,314,44*77
$GPGSV,3,3,09,02,09,196,36*40
$GPRMC,152138.678,A,4010.7263,N,00855.6356,W,9.31,124.10,250507,,*17
$GPGGA,152139.678,4010.7249,N,00855.6328,W,1,09,0.9,62.8,M,51.0,M,0.0,0000*56
$GPGSA,A,3,21,29,27,02,10,24,08,26,28,,,,1.6,0.9,1.3*30
$GPRMC,152139.678,A,4010.7249,N,00855.6328,W,9.38,122.21,250507,,*1A
$GPGGA,152140.678,4010.7235,N,00855.6298,W,1,09,0.9,63.0,M,51.0,M,0.0,0000*50
$GPGSA,A,3,21,29,27,02,10,24,08,26,28,,,,1.6,0.9,1.3*30
$GPRMC,152140.678,A,4010.7235,N,00855.6298,W,9.77,122.70,250507,,*1A
$GPGGA,152141.678,4010.7220,N,00855.6268,W,1,08,0.9,63.3,M,51.0,M,0.0,0000*58
$GPGSA,A,3,21,29,27,02,10,08,26,28,,,,,1.6,0.9,1.3*36
$GPRMC,152141.678,A,4010.7220,N,00855.6268,W,9.92,124.87,250507,,*15
$GPGGA,152142.678,4010.7204,N,00855.6237,W,1,09,0.9,63.8,M,51.0,M,0.0,0000*5D
$GPGSA,A,3,21,29,27,02,10,24,08,26,28,,,,1.6,0.9,1.3*30
$GPRMC,152142.678,A,4010.7204,N,00855.6237,W,10.10,125.24,250507,,*20
$GPGGA,152143.678,4010.7188,N,00855.6205,W,1,09,0.9,64.4,M,51.0,M,0.0,0000*51
$GPGSA,A,3,21,29,27,02,10,24,08,26,28,,,,1.6,0.9,1.3*30
$GPGSV,3,1,09,10,74,166,45,29,58,316,50,26,47,301,48,08,44,047,33*75
$GPGSV,3,2,09,28,40,104,49,24,30,278,36,27,19,049,37,21,12,314,47*7B
$GPGSV,3,3,09,02,09,196,36*40
$GPRMC,152143.678,A,4010.7188,N,00855.6205,W,10.40,123.55,250507,,*22
$GPGGA,152144.678,4010.7172,N,00855.6173,W,1,09,0.9,64.7,M,51.0,M,0.0,0000*52
$GPGSA,A,3,21,29,27,02,10,24,08,26,28,,,,1.6,0.9,1.3*30
$GPRMC,152144.678,A,4010.7172,N,00855.6173,W,10.21,122.42,250507,,*22
$GPGGA,152145.678,4010.7156,N,00855.6143,W,1,09,0.9,64.8,M,51.0,M,0.0,0000*59
$GPGSA,A,3,21,29,27,02,10,24,08,26,28,,,,1.6,0.9,1.3*30
$GPRMC,152145.678,A,4010.7156,N,00855.6143,W,10.21,124.16,250507,,*21
$GPGGA,152146.678,4010.7139,N,00855.6114,W,1,09,0.9,64.6,M,51.0,M,0.0,0000*5F
$GPGSA,A,3,21,29,27,02,10,24,08,26,28,,,,1.6,0.9,1.3*30
$GPRMC,152146.678,A,4010.7139,N,00855.6114,W,10.07,127.67,250507,,*28
$GPGGA,152147.678,4010.7122,N,00855.6086,W,1,09,0.9,64.3,M,51.0,M,0.0,0000*5B
$GPGSA,A,3,21,29,27,02,10,24,08,26,28,,,,1.6,0.9,1.3*30
$GPRMC,152147.678,A,4010.7122,N,00855.6086,W,9.69,126.09,250507,,*10
$GPGGA,152148.678,4010.7107,N,00855.6059,W,1,07,1.3,63.7,M,51.0,M,0.0,0000*57
$GPGSA,A,3,21,29,02,10,24,26,28,,,,,,2.0,1.3,1.5*35
$GPGSV,3,1,10,10,74,166,47,29,59,316,50,26,47,301,50,08,44,046,32*77
$GPGSV,3,2,10,28,40,104,49,24,30,278,44,27,19,049,29,21,12,314,40*7E
$GPGSV,3,3,10,02,09,196,35,09,05,230,35*70
$GPRMC,152148.678,A,4010.7107,N,00855.6059,W,9.36,122.94,250507,,*10
$GPGGA,152149.678,4010.7093,N,00855.6033,W,1,08,1.1,63.0,M,51.0,M,0.0,0000*5C
$GPGSA,A,3,21,29,02,10,24,08,26,28,,,,,1.8,1.1,1.5*34
$GPRMC,152149.678,A,4010.7093,N,00855.6033,W,8.98,122.03,250507,,*1A
$GPGGA,152150.678,4010.7080,N,00855.6008,W,1,09,0.9,62.5,M,51.0,M,0.0,0000*52
$GPGSA,A,3,21,29,27,02,10,24,08,26,28,,,,1.6,0.9,1.3*30
$GPRMC,152150.678,A,4010.7080,N,00855.6008,W,8.58,123.66,250507,,*16
$GPGGA,152151.678,4010.7066,N,00855.5984,W,1,09,0.9,62.2,M,51.0,M,0.0,0000*52
$GPGSA,A,3,21,29,27,02,10,24,08,26,28,,,,1.6,0.9,1.3*30
$GPRMC,152151.678,A,4010.7066,N,00855.5984,W,8.41,126.71,250507,,*1A
$GPGGA,152152.677,4010.7052,N,00855.5961,W,1,09,0.9,62.0,M,51.0,M,0.0,0000*50
$GPGSA,A,3,21,29,27,02,10,24,08,26,28,,,,1.6,0.9,1.3*30
$GPRMC,152152.677,A,4010.7052,N,00855.5961,W,8.36,125.28,250507,,*15
$GPGGA,152153.677,4010.7039,N,00855.5936,W,1,09,0.9,62.1,M,51.0,M,0.0,0000*5F
$GPGSA,A,3,21,29,27,02,10,24,08,26,28,,,,1.6,0.9,1.3*30
$GPGSV,3,1,10,10,74,166,46,29,59,316,51,26,47,301,49,08,44,046,37*7A
$GPGSV,3,2,10,28,40,104,50,24,30,278,31,27,19,049,34,21,12,314,46*7E
$GPGSV,3,3,10,02,09,196,42,09,05,230,31*74
$GPRMC,152153.677,A,4010.7039,N,00855.5936,W,8.40,123.54,250507,,*17
$GPGGA,152154.677,4010.7026,N,00855.5909,W,1,09,0.9,62.4,M,51.0,M,0.0,0000*5F
$GPGSA,A,3,21,29,27,02,10,24,08,26,28,,,,1.6,0.9,1.3*30
$GPRMC,152154.677,A,4010.7026,N,00855.5909,W,8.84,123.14,250507,,*1E
$GPGGA,152155.677,4010.7013,N,00855.5881,W,1,09,0.9,62.9,M,51.0,M,0.0,0000*54
$GPGSA,A,3,21,29,27,02,10,24,08,26,28,,,,1.6,0.9,1.3*30
$GPRMC,152155.677,A,4010.7013,N,00855.5881,W,9.36,122.68,250507,,*1A
$GPGGA,152156.677,4010.6998,N,00855.5851,W,1,09,0.9,63.1,M,51.0,M,0.0,0000*58
$GPGSA,A,3,21,29,27,02,10,24,08,26,28,,,,1.6,0.9,1.3*30
$GPRMC,152156.677,A,4010.6998,N,00855.5851,W,9.84,122.74,250507,,*1B
$GPGGA,152157.677,4010.6982,N,00855.5821,W,1,09,0.9,63.3,M,51.0,M,0.0,0000*57
$GPGSA,A,3,21,29,27,02,10,24,08,26,28,,,,1.6,0.9,1.3*30
$GPRMC,152157.677,A,4010.6982,N,00855.5821,W,10.36,124.79,250507,,*2C
$GPGGA,152158.677,4010.6965,N,00855.5789,W,1,08,1.1,63.4,M,51.0,M,0.0,0000*53
$GPGSA,A,3,21,29,02,10,24,08,26,28,,,,,1.8,1.1,1.5*34
$GPGSV,3,1,10,10,74,166,48,29,59,316,51,26,47,301,46,08,44,046,35*79
$GPGSV,3,2,10,28,40,104,49,24,30,278,32,27,19,049,27,21,12,314,44*75
$GPGSV,3,3,10,02,09,196,42,09,05,230,39*7C
$GPRMC,152158.677,A,4010.6965,N,00855.5789,W,10.70,125.59,250507,,*26
$GPGGA,152159.677,4010.6948,N,00855.5756,W,1,08,1.1,63.3,M,51.0,M,0.0,0000*58
$GPGSA,A,3,21,29,02,10,24,08,26,28,,,,,1.8,1.1,1.5*34
$GPRMC,152159.677,A,4010.6948,N,00855.5756,W,10.91,122.48,250507,,*22
$GPGGA,152200.677,4010.6933,N,00855.5723,W,1,09,0.9,63.3,M,51.0,M,0.0,0000*51
$GPGSA,A,3,21,29,27,02,10,24,08,26,28,,,,1.6,0.9,1.3*30
$GPRMC,152200.677,A,4010.6933,N,00855.5723,W,10.85,120.87,250507,,*27
$GPGGA,152201.677,4010.6917,N,00855.5691,W,1,09,0.9,63.3,M,51.0,M,0.0,0000*5E
$GPGSA,A,3,21,29,27,02,10,24,08,26,28,,,,1.6,0.9,1.3*30
$GPRMC,152201.677,A,4010.6917,N,00855.5691,W,10.54,123.57,250507,,*2A
$GPGGA,152202.677,4010.6901,N,00855.5662,W,1,09,0.9,63.1,M,51.0,M,0.0,0000*54
$GPGSA,A,3,21,29,27,02,10,24,08,26,28,,,,1.6,0.9,1.3*30
$GPRMC,152202.677,A,4010.6901,N,00855.5662,W,10.17,124.22,250507,,*20
$GPGGA,152203.677,4010.6886,N,00855.5633,W,1,09,0.9,63.1,M,51.0,M,0.0,0000*5F
$GPGSA,A,3,21,29,27,02,10,24,08,26,28,,,,1.6,0.9,1.3*30
$GPGSV,3,1,10,10,74,166,46,29,59,316,51,26,47,301,47,08,44,046,34*77
$GPGSV,3,2,10,28,40,104,47,24,30,278,44,27,19,049,29,21,12,314,45*75
$GPGSV,3,3,10,02,09,196,37,09,05,230,31*76
$GPRMC,152203.677,A,4010.6886,N,00855.5633,W,9.63,123.58,250507,,*1A
$GPGGA,152204.677,4010.6872,N,00855.5606,W,1,08,1.1,62.9,M,51.0,M,0.0,0000*54
$GPGSA,A,3,21,29,02,10,24,08,26,28,,,,,1.8,1.1,1.5*34
$GPRMC,152204.677,A,4010.6872,N,00855.5606,W,9.01,124.59,250507,,*12
$GPGGA,152205.677,4010.6859,N,00855.5579,W,1,09,0.9,62.5,M,51.0,M,0.0,0000*53
$GPGSA,A,3,21,29,27,02,10,24,08,26,28,,,,1.6,0.9,1.3*30
$GPRMC,152205.677,A,4010.6859,N,00855.5579,W,8.68,123.06,250507,,*12
$GPGGA,152206.677,4010.6846,N,00855.5553,W,1,09,0.9,62.3,M,51.0,M,0.0,0000*50
$GPGSA,A,3,21,29,27,02,10,24,08,26,28,,,,1.6,0.9,1.3*30
$GPRMC,152206.677,A,4010.6846,N,00855.5553,W,8.57,121.62,250507,,*1B
$GPGGA,152207.677,4010.6834,N,00855.5527,W,1,09,0.9,62.1,M,51.0,M,0.0,0000*55
$GPGSA,A,3,21,29,27,02,10,24,08,26,28,,,,1.6,0.9,1.3*30
$GPRMC,152207.677,A,4010.6834,N,00855.5527,W,8.41,123.65,250507,,*1E
$GPGGA,152208.676,4010.6821,N,00855.5502,W,1,09,0.9,62.1,M,51.0,M,0.0,0000*58
$GPGSA,A,3,21,29,27,02,10,24,08,26,28,,,,1.6,0.9,1.3*30
$GPGSV,3,1,10,10,74,166,45,29,59,316,50,26,47,301,50,08,44,046,35*72
$GPGSV,3,2,10,28,40,104,48,24,30,278,37,27,19,049,37,21,12,314,46*72
$GPGSV,3,3,10,02,09,196,36,09,05,230,42*73
$GPRMC,152208.676,A,4010.6821,N,00855.5502,W,8.38,126.63,250507,,*1E
$GPGGA,152209.676,4010.6807,N,00855.5476,W,1,09,0.9,62.0,M,51.0,M,0.0,0000*5E
$GPGSA,A,3,21,29,27,02,10,24,08,26,28,,,,1.6,0.9,1.3*30
$GPRMC,152209.676,A,4010.6807,N,00855.5476,W,8.72,126.28,250507,,*18
$GPGGA,152210.676,4010.6792,N,00855.5449,W,1,09,0.9,62.1,M,51.0,M,0.0,0000*58
$GPGSA,A,3,21,29,27,02,10,24,08,26,28,,,,1.6,0.9,1.3*30
$GPRMC,152210.676,A,4010.6792,N,00855.5449,W,8.86,125.50,250507,,*18
$GPGGA,152211.676,4010.6778,N,00855.5420,W,1,09,0.9,62.5,M,51.0,M,0.0,0000*56
$GPGSA,A,3,21,29,27,02,10,24,08,26,28,,,,1.6,0.9,1.3*30
$GPRMC,152211.676,A,4010.6778,N,00855.5420,W,9.20,124.21,250507,,*18
$GPGGA,152212.676,4010.6764,N,00855.5390,W,1,08,0.9,62.8,M,51.0,M,0.0,0000*58
$GPGSA,A,3,21,29,27,02,10,08,26,28,,,,,1.6,0.9,1.3*36
$GPRMC,152212.676,A,4010.6764,N,00855.5390,W,9.75,122.77,250507,,*1F
$GPGGA,152213.676,4010.6749,N,00855.5360,W,1,09,0.9,63.0,M,51.0,M,0.0,0000*51
$GPGSA,A,3,21,29,27,02,10,24,08,26,28,,,,1.6,0.9,1.3*30
$GPGSV,3,1,10,10,74,166,45,29,59,316,50,26,47,301,46,08,44,046,30*70
$GPGSV,3,2,10,28,40,104,47,24,30,278,32,27,19,049,36,21,12,314,48*77
$GPGSV,3,3,10,02,09,196,32,09,05,230,45*70
$GPRMC,152213.676,A,4010.6749,N,00855.5360,W,9.96,123.37,250507,,*16
$GPGGA,152214.676,4010.6733,N,00855.5330,W,1,09,0.9,63.2,M,51.0,M,0.0,0000*5C
$GPGSA,A,3,21,29,27,02,10,24,08,26,28,,,,1.6,0.9,1.3*30
$GPRMC,152214.676,A,4010.6733,N,00855.5330,W,10.07,126.91,250507,,*20
$GPGGA,152215.676,4010.6715,N,00855.5302,W,1,09,0.9,63.4,M,51.0,M,0.0,0000*5E
$GPGSA,A,3,21,29,27,02,10,24,08,26,28,,,,1.6,0.9,1.3*30
$GPRMC,152215.676,A,4010.6715,N,00855.5302,W,10.18,128.21,250507,,*2F
$GPGGA,152216.676,4010.6699,N,00855.5273,W,1,08,1.1,63.3,M,51.0,M,0.0,0000*50
$GPGSA,A,3,21,29,02,10,24,08,26,28,,,,,1.8,1.1,1.5*34
$GPRMC,152216.676,A,4010.6699,N,00855.5273,W,10.02,123.49,250507,,*20
$GPGGA,152217.676,4010.6684,N,00855.5244,W,1,09,0.9,63.2,M,51.0,M,0.0,0000*50
$GPGSA,A,3,21,29,27,02,10,24,08,26,28,,,,1.6,0.9,1.3*30
$GPRMC,152217.676,A,4010.6684,N,00855.5244,W,9.88,121.68,250507,,*12
$GPGGA,152218.676,4010.6669,N,00855.5215,W,1,09,0.9,63.4,M,51.0,M,0.0,0000*5E
$GPGSA,A,3,21,29,27,02,10,24,08,26,28,,,,1.6,0.9,1.3*30
$GPGSV,3,1,10,10,74,166,45,29,59,317,51,26,48,301,50,08,44,046,38*70
$GPGSV,3,2,10,28,40,104,48,24,30,278,30,27,19,049,36,21,13,314,46*75
$GPGSV,3,3,10,02,09,196,36,09,05,230,39*7F
$GPRMC,152218.676,A,4010.6669,N,00855.5215,W,9.71,123.75,250507,,*12
$GPGGA,152219.676,4010.6653,N,00855.5185,W,1,09,0.9,63.7,M,51.0,M,0.0,0000*5F
$GPGSA,A,3,21,29,27,02,10,24,08,26,28,,,,1.6,0.9,1.3*30
$GPRMC,152219.676,A,4010.6653,N,00855.5185,W,9.53,126.78,250507,,*18
$GPGGA,152220.676,4010.6637,N,00855.5158,W,1,09,0.9,63.9,M,51.0,M,0.0,0000*59
$GPGSA,A,3,21,29,27,02,10,24,08,26,28,,,,1.6,0.9,1.3*30
$GPRMC,152220.676,A,4010.6637,N,00855.5158,W,9.49,125.81,250507,,*1E
$GPGGA,152221.676,4010.6622,N,00855.5130,W,1,08,1.1,63.7,M,51.0,M,0.0,0000*54
$GPGSA,A,3,21,29,02,10,24,08,26,28,,,,,1.8,1.1,1.5*34
$GPRMC,152221.676,A,4010.6622,N,00855.5130,W,9.47,124.23,250507,,*12
$GPGGA,152222.676,4010.6608,N,00855.5102,W,1,09,0.9,63.4,M,51.0,M,0.0,0000*55
$GPGSA,A,3,21,29,27,02,10,24,08,26,28,,,,1.6,0.9,1.3*30
$GPRMC,152222.676,A,4010.6608,N,00855.5102,W,9.32,121.97,250507,,*10
$GPGGA,152223.676,4010.6595,N,00855.5074,W,1,09,0.9,63.1,M,51.0,M,0.0,0000*56
$GPGSA,A,3,21,29,27,02,10,24,08,26,28,,,,1.6,0.9,1.3*30
$GPGSV,3,1,10,10,74,166,46,29,59,317,49,26,48,301,51,08,44,046,37*74
$GPGSV,3,2,10,28,40,104,48,24,30,278,41,27,19,049,37,21,13,314,44*70
$GPGSV,3,3,10,02,09,196,38,09,05,230,31*79
$GPRMC,152223.676,A,4010.6595,N,00855.5074,W,9.21,121.20,250507,,*18
$GPGGA,152224.675,4010.6581,N,00855.5048,W,1,09,0.9,62.5,M,51.0,M,0.0,0000*5D
$GPGSA,A,3,21,29,27,02,10,24,08,26,28,,,,1.6,0.9,1.3*30
$GPRMC,152224.675,A,4010.6581,N,00855.5048,W,9.10,123.01,250507,,*15
$GPGGA,152225.675,4010.6567,N,00855.5022,W,1,09,0.9,62.1,M,51.0,M,0.0,0000*5C
$GPGSA,A,3,21,29,27,02,10,24,08,26,28,,,,1.6,0.9,1.3*30
$GPRMC,152225.675,A,4010.6567,N,00855.5022,W,8.96,124.50,250507,,*1C
$GPGGA,152226.675,4010.6553,N,00855.4998,W,1,08,1.1,61.8,M,51.0,M,0.0,0000*53
$GPGSA,A,3,21,29,02,10,24,08,26,28,,,,,1.8,1.1,1.5*34
$GPRMC,152226.675,A,4010.6553,N,00855.4998,W,8.68,124.67,250507,,*14
$GPGGA,152227.675,4010.6540,N,00855.4972,W,1,08,1.1,61.6,M,51.0,M,0.0,0000*5A
$GPGSA,A,3,21,29,02,10,24,08,26,28,,,,,1.8,1.1,1.5*34
$GPRMC,152227.675,A,4010.6540,N,00855.4972,W,8.71,121.97,250507,,*11
$GPGGA,152228.675,4010.6527,N,00855.4945,W,1,09,0.9,61.7,M,51.0,M,0.0,0000*59
$GPGSA,A,3,21,29,27,02,10,24,08,26,28,,,,1.6,0.9,1.3*30
$GPGSV,3,1,10,10,74,166,45,29,59,317,52,26,48,301,49,08,44,046,37*74
$GPGSV,3,2,10,28,40,104,48,24,30,278,38,27,19,049,38,21,13,314,46*73
$GPGSV,3,3,10,02,09,196,37,09,05,230,42*72
$GPRMC,152228.675,A,4010.6527,N,00855.4945,W,8.74,123.43,250507,,*15
$GPGGA,152229.675,4010.6513,N,00855.4918,W,1,09,0.9,61.9,M,51.0,M,0.0,0000*59
$GPGSA,A,3,21,29,27,02,10,24,08,26,28,,,,1.6,0.9,1.3*30
$GPRMC,152229.675,A,4010.6513,N,00855.4918,W,8.88,123.71,250507,,*19
$GPGGA,152230.675,4010.6499,N,00855.4889,W,1,09,0.9,62.5,M,51.0,M,0.0,0000*54
$GPGSA,A,3,21,29,27,02,10,24,08,26,28,,,,1.6,0.9,1.3*30
$GPRMC,152230.675,A,4010.6499,N,00855.4889,W,9.29,124.92,250507,,*1B
$GPGGA,152231.675,4010.6485,N,00855.4860,W,1,09,0.9,62.9,M,51.0,M,0.0,0000*53
$GPGSA,A,3,21,29,27,02,10,24,08,26,28,,,,1.6,0.9,1.3*30
$GPRMC,152231.675,A,4010.6485,N,00855.4860,W,9.58,123.16,250507,,*1D
$GPGGA,152232.675,4010.6470,N,00855.4829,W,1,09,0.9,63.4,M,51.0,M,0.0,0000*5B
$GPGSA,A,3,21,29,27,02,10,24,08,26,28,,,,1.6,0.9,1.3*30
$GPRMC,152232.675,A,4010.6470,N,00855.4829,W,9.85,123.17,250507,,*18
$GPGGA,152233.675,4010.6455,N,00855.4797,W,1,09,0.9,63.9,M,51.0,M,0.0,0000*5A
$GPGSA,A,3,21,29,27,02,10,24,08,26,28,,,,1.6,0.9,1.3*30
$GPGSV,3,1,10,10,74,166,45,29,59,317,52,26,48,301,49,08,44,046,34*77
$GPGSV,3,2,10,28,40,104,49,24,30,278,33,27,19,049,35,21,13,314,46*74
$GPGSV,3,3,10,02,09,196,37,09,05,230,38*7F
$GPRMC,152233.675,A,4010.6455,N,00855.4797,W,10.26,125.06,250507,,*23
$GPGGA,152234.675,4010.6439,N,00855.4766,W,1,09,0.9,64.2,M,51.0,M,0.0,0000*55
$GPGSA,A,3,21,29,27,02,10,24,08,26,28,,,,1.6,0.9,1.3*30
$GPRMC,152234.675,A,4010.6439,N,00855.4766,W,10.31,124.50,250507,,*24
$GPGGA,152235.675,4010.6423,N,00855.4735,W,1,09,0.9,64.2,M,51.0,M,0.0,0000*59
$GPGSA,A,3,21,29,27,02,10,24,08,26,28,,,,1.6,0.9,1.3*30
$GPRMC,152235.675,A,4010.6423,N,00855.4735,W,10.32,123.40,250507,,*2D
$GPGGA,152236.675,4010.6407,N,00855.4704,W,1,09,0.9,63.9,M,51.0,M,0.0,0000*52
$GPGSA,A,3,21,29,27,02,10,24,08,26,28,,,,1.6,0.9,1.3*30
$GPRMC,152236.675,A,4010.6407,N,00855.4704,W,10.29,124.23,250507,,*22
$GPGGA,152237.675,4010.6391,N,00855.4675,W,1,09,0.9,63.6,M,51.0,M,0.0,0000*53
$GPGSA,A,3,21,29,27,02,10,24,08,26,28,,,,1.6,0.9,1.3*30
$GPRMC,152237.675,A,4010.6391,N,00855.4675,W,9.98,124.33,250507,,*1F
$GPGGA,152238.675,4010.6376,N,00855.4647,W,1,09,0.9,63.3,M,51.0,M,0.0,0000*51
